,id_mutation,date_mutation,prix,type_local,nb_dépendances,surface_réelle,surface_carrez,nb_pièces_principales,prix_au_m2_carrez,prix_au_m2_réel,adresse_numero,adresse_nom_voie,adresse_code_voie,code_postal,code_commune,nom_commune,code_departement,id_parcelle,longitude,latitude
0,2018-743587,2018-07-02,372000.0,Appartement,0.0,35.0,35.52,2.0,10473.0,10629.0,35.0,RUE NOTRE DAME DE NAZARETH,6834,75003.0,75103,Paris 3e Arrondissement,75,75103000AB0071,2.358136,48.867319
2,2018-743589,2018-07-03,158000.0,Appartement,0.0,10.0,,1.0,,15800.0,56.0,RUE DE RICHELIEU,8212,75001.0,75101,Paris 1er Arrondissement,75,75101000AV0063,2.337476,48.866524
3,2018-743590,2018-07-02,737420.0,Appartement,0.0,62.0,,3.0,,11894.0,139.0,RUE DU TEMPLE,9191,75003.0,75103,Paris 3e Arrondissement,75,75103000AE0067,2.35839,48.863756
10,2018-743594,2018-07-03,216500.0,Appartement,0.0,24.0,21.1,1.0,10261.0,9021.0,1.0,RUE JEAN MERMOZ,4921,75008.0,75108,Paris 8e Arrondissement,75,75108000BH0046,2.310473,48.870036
13,2018-743596,2018-07-05,347500.0,Appartement,0.0,35.0,31.95,2.0,10876.0,9929.0,219.0,RUE SAINT MARTIN,8694,75003.0,75103,Paris 3e Arrondissement,75,75103000AV0148,2.352721,48.86427
14,2018-743597,2018-07-02,267000.0,Appartement,0.0,27.0,27.25,1.0,9798.0,9889.0,142.0,RUE DU TEMPLE,9191,75003.0,75103,Paris 3e Arrondissement,75,75103000AI0034,2.358997,48.863836
17,2018-743599,2018-07-02,235000.0,Appartement,0.0,27.0,22.45,2.0,10468.0,8704.0,43.0,RUE DE RICHELIEU,8212,75001.0,75101,Paris 1er Arrondissement,75,75101000AW0040,2.336791,48.866161
18,2018-743600,2018-07-05,358800.0,Appartement,0.0,23.0,,1.0,,15600.0,76.0,RUE DE TURENNE,9506,75003.0,75103,Paris 3e Arrondissement,75,75103000AL0067,2.365106,48.860541
19,2018-743600,2018-07-05,421200.0,Appartement,0.0,27.0,,1.0,,15600.0,76.0,RUE DE TURENNE,9506,75003.0,75103,Paris 3e Arrondissement,75,75103000AL0067,2.365106,48.860541
21,2018-743602,2018-07-05,1667000.0,Appartement,0.0,128.0,127.73,5.0,13051.0,13023.0,41.0,RUE REAUMUR,8073,75003.0,75103,Paris 3e Arrondissement,75,75103000AD0015,2.354192,48.865735
22,2018-743603,2018-07-09,1433000.0,Appartement,0.0,136.0,135.78,5.0,10554.0,10537.0,10.0,PL HENRI BERGSON,4539,75008.0,75108,Paris 8e Arrondissement,75,75108000BW0009,2.320966,48.876357
23,2018-743604,2018-07-09,1230000.0,Appartement,0.0,134.0,127.33,5.0,9660.0,9179.0,226.0,RUE DE RIVOLI,8249,75001.0,75101,Paris 1er Arrondissement,75,75101000AY0006,2.3285,48.86519
24,2018-743605,2018-07-09,553000.0,Appartement,0.0,40.0,43.19,2.0,12804.0,13825.0,22.0,RUE MESLAY,6286,75003.0,75103,Paris 3e Arrondissement,75,75103000AF0009,2.36027,48.867943
28,2018-743609,2018-07-05,1451000.0,Appartement,0.0,102.0,31.42,4.0,46181.0,14225.0,25.0,RUE DU MONT THABOR,6537,75001.0,75101,Paris 1er Arrondissement,75,75101000BD0049,2.325011,48.866632
30,2018-743611,2018-07-04,245000.0,Appartement,0.0,25.0,24.83,1.0,9867.0,9800.0,53.0,RUE DE MONCEAU,6419,75008.0,75108,Paris 8e Arrondissement,75,75108000CM0019,2.311657,48.87868
32,2018-743613,2018-07-06,500000.0,Appartement,0.0,60.0,58.98,3.0,8477.0,8333.0,9.0,RUE DU PONT AUX CHOUX,7605,75003.0,75103,Paris 3e Arrondissement,75,75103000AL0053,2.366311,48.860877
33,2018-743614,2018-07-06,870000.0,Appartement,0.0,73.0,70.65,4.0,12314.0,11918.0,82.0,RUE DE TURENNE,9506,75003.0,75103,Paris 3e Arrondissement,75,75103000AL0045,2.364954,48.860947
35,2018-743615,2018-07-06,3575000.0,Appartement,0.0,276.0,273.6,9.0,13067.0,12953.0,217.0,RUE DU FAUBOURG SAINT HONORE,3518,75008.0,75108,Paris 8e Arrondissement,75,75108000AX0115,2.300376,48.876606
36,2018-743616,2018-07-09,460000.0,Appartement,0.0,40.0,48.42,3.0,9500.0,11500.0,2.0,PAS SAINT PHILIPPE DU ROULE,8727,75008.0,75108,Paris 8e Arrondissement,75,75108000BE0080,2.310784,48.873122
37,2018-743617,2018-07-13,385076.0,Appartement,0.0,47.0,41.16,3.0,9356.0,8193.0,25.0,RUE CAMBACERES,1443,75008.0,75108,Paris 8e Arrondissement,75,75108000BL0022,2.317705,48.87344
38,2018-743617,2018-07-13,90124.0,Appartement,0.0,11.0,,1.0,,8193.0,25.0,RUE CAMBACERES,1443,75008.0,75108,Paris 8e Arrondissement,75,75108000BL0022,2.317705,48.87344
40,2018-743619,2018-07-10,500000.0,Appartement,0.0,50.0,,3.0,,10000.0,3.0,RUE CHARLES-FRANCOIS DUPUIS,3015,75003.0,75103,Paris 3e Arrondissement,75,75103000AG0080,2.363048,48.865318
44,2018-743622,2018-07-11,250000.0,Appartement,0.0,29.0,29.83,2.0,8381.0,8621.0,4.0,RUE DES SAUSSAIES,8843,75008.0,75108,Paris 8e Arrondissement,75,75108000BN0058,2.317076,48.871015
45,2018-743623,2018-07-05,35000.0,Appartement,0.0,8.0,20.0,1.0,1750.0,4375.0,10.0,RUE DE COPENHAGUE,2306,75008.0,75108,Paris 8e Arrondissement,75,75108000CF0044,2.320118,48.880392
46,2018-743624,2018-07-02,264960.0,Appartement,0.0,18.0,,1.0,,14720.0,31.0,RUE DES TOURNELLES,9382,75003.0,75103,Paris 3e Arrondissement,75,75103000AN0085,2.367066,48.856285
47,2018-743624,2018-07-02,323840.0,Appartement,0.0,22.0,,1.0,,14720.0,31.0,RUE DES TOURNELLES,9382,75003.0,75103,Paris 3e Arrondissement,75,75103000AN0085,2.367066,48.856285
48,2018-743625,2018-07-12,754000.0,Appartement,0.0,62.0,65.54,2.0,11504.0,12161.0,55.0,RUE DES ARCHIVES,0420,75003.0,75103,Paris 3e Arrondissement,75,75103000AR0004,2.358298,48.861636
50,2018-743627,2018-07-12,604660.0,Appartement,0.0,58.0,51.24,3.0,11801.0,10425.0,37.0,RUE DE MONTMORENCY,6517,75003.0,75103,Paris 3e Arrondissement,75,75103000AV0094,2.353829,48.863274
51,2018-743628,2018-07-12,130250.0,Appartement,0.0,25.0,15.34,1.0,8491.0,5210.0,50.0,RUE NOTRE DAME DE NAZARETH,6834,75003.0,75103,Paris 3e Arrondissement,75,75103000AB0063,2.357892,48.867749
52,2018-743628,2018-07-12,130250.0,Appartement,0.0,25.0,16.28,1.0,8001.0,5210.0,50.0,RUE NOTRE DAME DE NAZARETH,6834,75003.0,75103,Paris 3e Arrondissement,75,75103000AB0063,2.357892,48.867749
53,2018-743629,2018-07-06,600000.0,Appartement,0.0,59.0,60.06,2.0,9990.0,10169.0,3.0,RUE SAINTE APOLLINE,8538,75003.0,75103,Paris 3e Arrondissement,75,75103000AB0129,2.355071,48.86863
54,2018-743630,2018-07-05,1139200.0,Appartement,0.0,91.0,92.71,3.0,12288.0,12519.0,30.0,RUE NOTRE DAME DE NAZARETH,6834,75003.0,75103,Paris 3e Arrondissement,75,75103000AF0063,2.359542,48.867492
55,2018-743631,2018-07-02,510000.0,Appartement,0.0,45.0,21.53,2.0,23688.0,11333.0,45.0,RUE DE TURENNE,9506,75003.0,75103,Paris 3e Arrondissement,75,75103000AN0022,2.3642,48.857735
57,2018-743632,2018-07-16,1275430.0,Appartement,0.0,95.0,92.7,3.0,13759.0,13426.0,25.0,RUE DE PENTHIEVRE,7237,75008.0,75108,Paris 8e Arrondissement,75,75108000BK0038,2.315505,48.872527
59,2018-743634,2018-07-12,225000.0,Appartement,0.0,14.0,16.6,1.0,13554.0,16071.0,18.0,RUE DE LA SOURDIERE,5368,75001.0,75101,Paris 1er Arrondissement,75,75101000AZ0061,2.332391,48.865961
60,2018-743635,2018-07-16,569000.0,Appartement,0.0,46.0,50.37,3.0,11296.0,12370.0,76.0,RUE RAMBUTEAU,8009,75001.0,75101,Paris 1er Arrondissement,75,75101000AQ0135,2.34928,48.86228
63,2018-743637,2018-07-11,420588.0,Appartement,0.0,26.0,36.19,1.0,11622.0,16176.0,14.0,RUE ELZEVIR,3196,75003.0,75103,Paris 3e Arrondissement,75,75103000AO0048,2.362311,48.858615
64,2018-743637,2018-07-11,129412.0,Appartement,0.0,8.0,39.67,0.0,3262.0,16176.0,14.0,RUE ELZEVIR,3196,75003.0,75103,Paris 3e Arrondissement,75,75103000AO0048,2.362311,48.858615
66,2018-743638,2018-07-18,2311700.0,Appartement,0.0,175.0,170.84,5.0,13531.0,13210.0,66.0,RUE DE LISBONNE,5708,75008.0,75108,Paris 8e Arrondissement,75,75108000CO0044,2.306998,48.877579
67,2018-743639,2018-07-16,408800.0,Appartement,0.0,32.0,32.02,1.0,12767.0,12775.0,11.0,RUE DE BERRI,0904,75008.0,75108,Paris 8e Arrondissement,75,75108000BF0016,2.303752,48.872624
68,2018-743640,2018-07-02,820000.0,Appartement,0.0,67.0,70.03,3.0,11709.0,12239.0,78.0,RUE NOTRE DAME DE NAZARETH,6834,75003.0,75103,Paris 3e Arrondissement,75,75103000AB0111,2.354681,48.86807
70,2018-743641,2018-07-09,1138000.0,Appartement,0.0,83.0,97.11,4.0,11719.0,13711.0,157.0,RUE DU FAUBOURG SAINT HONORE,3518,75008.0,75108,Paris 8e Arrondissement,75,75108000BD0013,2.306373,48.874189
73,2018-743643,2018-07-13,1981150.0,Appartement,0.0,165.0,172.18,4.0,11506.0,12007.0,164.0,RUE DU FAUBOURG SAINT HONORE,3518,75008.0,75108,Paris 8e Arrondissement,75,75108000BE0017,2.309351,48.873827
104,2018-743645,2018-07-12,1638800.0,Appartement,0.0,140.0,120.25,6.0,13628.0,11706.0,27.0,RUE DE BERNE,0900,75008.0,75108,Paris 8e Arrondissement,75,75108000CE0035,2.322525,48.88133
106,2018-743647,2018-07-04,240000.0,Appartement,0.0,25.0,25.4,1.0,9449.0,9600.0,48.0,RUE DE LA BIENFAISANCE,0960,75008.0,75108,Paris 8e Arrondissement,75,75108000CI0117,2.314472,48.876844
107,2018-743648,2018-07-03,150000.0,Appartement,0.0,18.0,,1.0,,8333.0,91.0,RUE QUINCAMPOIX,7970,75003.0,75103,Paris 3e Arrondissement,75,75103000AU0021,2.351081,48.862614
108,2018-743649,2018-07-04,350.0,Appartement,0.0,134.0,,5.0,,3.0,7.0,RUE MARBEUF,5993,75008.0,75108,Paris 8e Arrondissement,75,75108000AP0046,2.301979,48.86773
109,2018-743650,2018-07-11,550000.0,Appartement,0.0,33.0,33.56,1.0,16389.0,16667.0,43.0,RUE BOISSY D ANGLAS,1081,75008.0,75108,Paris 8e Arrondissement,75,75108000BR0043,2.322366,48.870234
111,2018-743652,2018-07-12,211215.0,Appartement,0.0,24.0,20.63,1.0,10238.0,8801.0,15.0,RUE JEAN JACQUES ROUSSEAU,4901,75001.0,75101,Paris 1er Arrondissement,75,75101000AS0012,2.340218,48.862656
112,2018-743653,2018-07-05,279010.0,Appartement,0.0,21.0,21.05,1.0,13255.0,13286.0,1.0,RUE JEAN MERMOZ,4921,75008.0,75108,Paris 8e Arrondissement,75,75108000BH0046,2.310473,48.870036
116,2018-743655,2018-07-18,1200000.0,Appartement,0.0,74.0,83.32,2.0,14402.0,16216.0,45.0,AV HOCHE,4645,75008.0,75108,Paris 8e Arrondissement,75,75108000AX0091,2.299451,48.875257
117,2018-743656,2018-07-11,105000.0,Appartement,0.0,25.0,12.13,1.0,8656.0,4200.0,50.0,RUE NOTRE DAME DE NAZARETH,6834,75003.0,75103,Paris 3e Arrondissement,75,75103000AB0063,2.357892,48.867749
118,2018-743657,2018-07-12,386450.0,Appartement,0.0,26.0,23.46,1.0,16473.0,14863.0,23.0,RUE BAYARD,0746,75008.0,75108,Paris 8e Arrondissement,75,75108000AM0008,2.307452,48.867033
119,2018-743658,2018-07-04,130000.0,Appartement,0.0,16.0,15.7,1.0,8280.0,8125.0,133.0,RUE VIEILLE DU TEMPLE,9783,75003.0,75103,Paris 3e Arrondissement,75,75103000AK0064,2.36381,48.86174
120,2018-743659,2018-07-05,1542000.0,Appartement,0.0,110.0,109.12,3.0,14131.0,14018.0,26.0,RUE DE LA BIENFAISANCE,0960,75008.0,75108,Paris 8e Arrondissement,75,75108000CI0034,2.316682,48.876771
122,2018-743660,2018-07-20,766423.0,Appartement,0.0,75.0,126.99,3.0,6035.0,10219.0,89.0,RUE SAINT HONORE,8635,75001.0,75101,Paris 1er Arrondissement,75,75101000AT0095,2.343417,48.861
123,2018-743660,2018-07-20,633577.0,Appartement,0.0,62.0,,2.0,,10219.0,89.0,RUE SAINT HONORE,8635,75001.0,75101,Paris 1er Arrondissement,75,75101000AT0095,2.343417,48.861
125,2018-743662,2018-07-17,500000.0,Appartement,0.0,46.0,45.98,2.0,10874.0,10870.0,100.0,RUE QUINCAMPOIX,7970,75003.0,75103,Paris 3e Arrondissement,75,75103000AU0030,2.351654,48.862986
126,2018-743663,2018-07-10,300000.0,Appartement,0.0,40.0,38.7,2.0,7752.0,7500.0,11.0,RUE CHARLOT,1880,75003.0,75103,Paris 3e Arrondissement,75,75103000AQ0022,2.36076,48.861523
127,2018-743664,2018-07-11,413438.0,Appartement,0.0,36.0,32.55,2.0,12702.0,11484.0,276.0,RUE SAINT HONORE,8635,75001.0,75101,Paris 1er Arrondissement,75,75101000AX0017,2.333387,48.864577
128,2018-743665,2018-07-12,278750.0,Appartement,0.0,36.0,31.67,2.0,8802.0,7743.0,64.0,RUE DE ROME,8339,75008.0,75108,Paris 8e Arrondissement,75,75108000CE0021,2.321827,48.880292
129,2018-743666,2018-07-16,140000.0,Appartement,0.0,17.0,7.1,1.0,19718.0,8235.0,5.0,RUE DES PYRAMIDES,7902,75001.0,75101,Paris 1er Arrondissement,75,75101000AX0012,2.332345,48.864465
131,2018-743667,2018-07-12,492000.0,Appartement,0.0,53.0,50.15,2.0,9811.0,9283.0,3.0,RUE ETIENNE MARCEL,3392,75001.0,75101,Paris 1er Arrondissement,75,75101000AQ0117,2.350362,48.863311
132,2018-743668,2018-07-05,299950.0,Appartement,0.0,28.0,28.52,2.0,10517.0,10712.0,324.0,RUE SAINT MARTIN,8694,75003.0,75103,Paris 3e Arrondissement,75,75103000AB0045,2.355539,48.868228
166,2018-743670,2018-07-13,1960000.0,Appartement,0.0,217.0,216.03,7.0,9073.0,9032.0,74.0,RUE DU ROCHER,8291,75008.0,75108,Paris 8e Arrondissement,75,75108000CF0086,2.318309,48.879758
167,2018-743671,2018-07-11,425000.0,Appartement,0.0,34.0,33.49,1.0,12690.0,12500.0,2.0,RUE SAINT HONORE,8635,75001.0,75101,Paris 1er Arrondissement,75,75101000AO0001,2.345729,48.860977
169,2018-743672,2018-07-12,1257282.0,Appartement,0.0,88.0,80.03,3.0,15710.0,14287.0,103.0,RUE DU TEMPLE,9191,75003.0,75103,Paris 3e Arrondissement,75,75103000AS0078,2.357169,48.862347
170,2018-743673,2018-07-13,100000.0,Appartement,0.0,9.0,9.15,1.0,10929.0,11111.0,5.0,RUE JEAN JACQUES ROUSSEAU,4901,75001.0,75101,Paris 1er Arrondissement,75,75101000AS0017,2.339872,48.862374
171,2018-743674,2018-07-06,655000.0,Appartement,0.0,47.0,40.06,3.0,16350.0,13936.0,56.0,RUE NOTRE DAME DE NAZARETH,6834,75003.0,75103,Paris 3e Arrondissement,75,75103000AB0034,2.357551,48.867876
172,2018-743675,2018-07-03,850000.0,Appartement,0.0,52.0,49.66,2.0,17116.0,16346.0,89.0,BD BEAUMARCHAIS,0783,75003.0,75103,Paris 3e Arrondissement,75,75103000AM0048,2.36731,48.859067
173,2018-743676,2018-07-05,415900.0,Appartement,0.0,40.0,34.62,2.0,12013.0,10398.0,62.0,RUE DE SAINTONGE,8716,75003.0,75103,Paris 3e Arrondissement,75,75103000AJ0015,2.365033,48.863707
174,2018-743677,2018-07-13,137800.0,Appartement,0.0,24.0,,2.0,,5742.0,13.0,RUE DANIELLE CASANOVA,2543,75001.0,75101,Paris 1er Arrondissement,75,75101000AZ0040,2.332481,48.86763
176,2018-743679,2018-07-18,830000.0,Appartement,0.0,90.0,,4.0,,9222.0,26.0,RUE D EDIMBOURG,3118,75008.0,75108,Paris 8e Arrondissement,75,75108000CF0080,2.319285,48.879478
179,2018-743681,2018-07-13,860000.0,Appartement,0.0,71.0,71.81,3.0,11976.0,12113.0,6.0,RUE DES HAUDRIETTES,4483,75003.0,75103,Paris 3e Arrondissement,75,75103000AR0005,2.357892,48.86205
180,2018-743682,2018-07-03,346300.0,Appartement,0.0,29.0,30.06,1.0,11520.0,11941.0,19.0,AV HOCHE,4645,75008.0,75108,Paris 8e Arrondissement,75,75108000BC0004,2.302924,48.876617
181,2018-743683,2018-07-05,448305.0,Appartement,0.0,115.0,112.65,6.0,3980.0,3898.0,5.0,RUE PELOUZE,7231,75008.0,75108,Paris 8e Arrondissement,75,75108000CF0015,2.318528,48.880934
182,2018-743683,2018-07-05,701695.0,Appartement,0.0,180.0,,5.0,,3898.0,5.0,RUE PELOUZE,7231,75008.0,75108,Paris 8e Arrondissement,75,75108000CF0015,2.318528,48.880934
183,2018-743684,2018-07-12,188500.0,Appartement,0.0,25.0,21.74,1.0,8671.0,7540.0,49.0,RUE DE L ARBRE SEC,0407,75001.0,75101,Paris 1er Arrondissement,75,75101000AT0127,2.342239,48.861296
184,2018-743685,2018-07-06,3300000.0,Appartement,0.0,245.0,250.46,7.0,13176.0,13469.0,28.0,AV MARCEAU,5997,75008.0,75108,Paris 8e Arrondissement,75,75108000AO0065,2.300009,48.867132
185,2018-743686,2018-07-05,1206750.0,Appartement,0.0,116.0,116.19,2.0,10386.0,10403.0,44.0,RUE D ARTOIS,0487,75008.0,75108,Paris 8e Arrondissement,75,75108000BD0002,2.305516,48.874514
186,2018-743687,2018-07-20,803000.0,Appartement,0.0,85.0,82.54,3.0,9729.0,9447.0,41.0,RUE DE COURCELLES,2387,75008.0,75108,Paris 8e Arrondissement,75,75108000BD0033,2.308082,48.875697
187,2018-743688,2018-07-11,170000.0,Appartement,0.0,22.0,13.37,1.0,12715.0,7727.0,9.0,RUE VOLTA,9905,75003.0,75103,Paris 3e Arrondissement,75,75103000AE0142,2.356779,48.865044
188,2018-743689,2018-07-12,500.0,Appartement,0.0,96.0,,3.0,,5.0,12.0,RUE PELOUZE,7231,75008.0,75108,Paris 8e Arrondissement,75,75108000CF0004,2.317791,48.881157
189,2018-743690,2018-07-13,928935.0,Appartement,1.0,83.0,81.05,4.0,11461.0,11192.0,16.0,RUE CLAPEYRON,2067,75008.0,75108,Paris 8e Arrondissement,75,75108000CD0006,2.323998,48.88215
191,2018-743691,2018-07-25,470000.0,Appartement,0.0,53.0,46.35,2.0,10140.0,8868.0,42.0,RUE MESLAY,6286,75003.0,75103,Paris 3e Arrondissement,75,75103000AB0023,2.357818,48.868325
192,2018-743692,2018-07-16,1183900.0,Appartement,0.0,104.0,99.73,5.0,11871.0,11384.0,11.0,RUE JEAN MERMOZ,4921,75008.0,75108,Paris 8e Arrondissement,75,75108000BI0071,2.311265,48.871131
193,2018-743693,2018-07-12,201.0,Appartement,0.0,54.0,,3.0,,4.0,12.0,RUE PELOUZE,7231,75008.0,75108,Paris 8e Arrondissement,75,75108000CF0004,2.317791,48.881157
194,2018-743693,2018-07-12,299.0,Appartement,0.0,80.0,,3.0,,4.0,12.0,RUE PELOUZE,7231,75008.0,75108,Paris 8e Arrondissement,75,75108000CF0004,2.317791,48.881157
195,2018-743694,2018-07-02,230000.0,Appartement,0.0,26.0,19.98,2.0,11512.0,8846.0,27.0,BD SAINT MARTIN,8692,75003.0,75103,Paris 3e Arrondissement,75,75103000AF0001,2.358984,48.868129
196,2018-743695,2018-07-02,1158798.0,Appartement,0.0,150.0,148.0,5.0,7830.0,7725.0,29.0,BD MALESHERBES,5951,75008.0,75108,Paris 8e Arrondissement,75,75108000BM0057,2.320787,48.872583
197,2018-743695,2018-07-02,641202.0,Appartement,0.0,83.0,,3.0,,7725.0,29.0,BD MALESHERBES,5951,75008.0,75108,Paris 8e Arrondissement,75,75108000BM0057,2.320787,48.872583
198,2018-743696,2018-07-19,156000.0,Appartement,0.0,14.0,12.52,1.0,12460.0,11143.0,185.0,RUE DU TEMPLE,9191,75003.0,75103,Paris 3e Arrondissement,75,75103000AF0118,2.36013,48.865591
201,2018-743699,2018-07-02,1000000.0,Appartement,0.0,108.0,,3.0,,9259.0,48.0,BD MALESHERBES,5951,75008.0,75108,Paris 8e Arrondissement,75,75108000CI0056,2.318135,48.876896
202,2018-743700,2018-07-06,1545000.0,Appartement,0.0,108.0,109.6,3.0,14097.0,14306.0,4.0,RUE DES FILLES DU CALVAIRE,3643,75003.0,75103,Paris 3e Arrondissement,75,75103000AK0016,2.365173,48.861978
203,2018-743701,2018-07-20,220800.0,Appartement,0.0,15.0,,1.0,,14720.0,103.0,BD MALESHERBES,5951,75008.0,75108,Paris 8e Arrondissement,75,75108000CM0030,2.31374,48.879425
206,2018-743703,2018-07-12,2361500.0,Appartement,0.0,214.0,215.14,6.0,10977.0,11035.0,217.0,RUE DU FAUBOURG SAINT HONORE,3518,75008.0,75108,Paris 8e Arrondissement,75,75108000AX0115,2.300376,48.876606
209,2018-743704,2018-07-12,353000.0,Appartement,0.0,33.0,31.05,1.0,11369.0,10697.0,11.0,RUE DE BERRI,0904,75008.0,75108,Paris 8e Arrondissement,75,75108000BF0016,2.303752,48.872624
210,2018-743705,2018-07-18,450000.0,Appartement,0.0,34.0,,2.0,,13235.0,6.0,RUE DE POITOU,7572,75003.0,75103,Paris 3e Arrondissement,75,75103000AK0054,2.364289,48.861504
211,2018-743706,2018-07-21,180233.0,Appartement,0.0,25.0,12.19,1.0,14785.0,7209.0,36.0,RUE MONTORGUEIL,6520,75001.0,75101,Paris 1er Arrondissement,75,75101000AQ0046,2.346744,48.863973
212,2018-743706,2018-07-21,129767.0,Appartement,0.0,18.0,25.21,1.0,5147.0,7209.0,36.0,RUE MONTORGUEIL,6520,75001.0,75101,Paris 1er Arrondissement,75,75101000AQ0046,2.346744,48.863973
214,2018-743708,2018-07-06,306122.0,Appartement,0.0,30.0,47.7,2.0,6418.0,10204.0,56.0,RUE CHAPON,1771,75003.0,75103,Paris 3e Arrondissement,75,75103000AV0028,2.353785,48.864262
215,2018-743708,2018-07-06,193878.0,Appartement,0.0,19.0,47.7,1.0,4065.0,10204.0,56.0,RUE CHAPON,1771,75003.0,75103,Paris 3e Arrondissement,75,75103000AV0028,2.353785,48.864262
216,2018-743709,2018-07-06,403570.0,Appartement,0.0,35.0,34.6,2.0,11664.0,11531.0,34.0,RUE COQUILLIERE,2318,75001.0,75101,Paris 1er Arrondissement,75,75101000AR0037,2.341571,48.864387
217,2018-743710,2018-07-03,990000.0,Appartement,0.0,95.0,96.6,4.0,10248.0,10421.0,4.0,RUE DE BERNE,0900,75008.0,75108,Paris 8e Arrondissement,75,75108000CE0097,2.323975,48.880391
219,2018-743711,2018-07-10,1355000.0,Appartement,0.0,140.0,139.85,4.0,9689.0,9679.0,11.0,RUE DE SAINT PETERSBOURG,8724,75008.0,75108,Paris 8e Arrondissement,75,75108000CE0093,2.324318,48.880611
220,2018-743712,2018-07-10,2461000.0,Appartement,0.0,150.0,137.76,5.0,17864.0,16407.0,18.0,RUE DES COUTURES SAINT GERVAIS,2412,75003.0,75103,Paris 3e Arrondissement,75,75103000AL0007,2.362266,48.860335
221,2018-743713,2018-07-16,526440.0,Appartement,0.0,60.0,37.37,2.0,14087.0,8774.0,39.0,RUE CHAPON,1771,75003.0,75103,Paris 3e Arrondissement,75,75103000AV0064,2.353709,48.863955
222,2018-743714,2018-07-20,842500.0,Appartement,0.0,74.0,76.56,3.0,11004.0,11385.0,49.0,RUE DU ROCHER,8291,75008.0,75108,Paris 8e Arrondissement,75,75108000BX0013,2.319546,48.878323
223,2018-743715,2018-07-13,415000.0,Appartement,0.0,40.0,38.78,2.0,10701.0,10375.0,15.0,RUE CLAPEYRON,2067,75008.0,75108,Paris 8e Arrondissement,75,75108000CE0054,2.32347,48.881722
225,2018-743717,2018-07-17,754545.0,Appartement,0.0,85.0,83.41,3.0,9046.0,8877.0,15.0,RUE ETIENNE MARCEL,3392,75001.0,75101,Paris 1er Arrondissement,75,75101000AQ0111,2.349338,48.863651
226,2018-743718,2018-07-27,167517.0,Appartement,0.0,23.0,24.37,1.0,6874.0,7283.0,3.0,RUE BALZAC,0652,75008.0,75108,Paris 8e Arrondissement,75,75108000AV0044,2.300045,48.873495
227,2018-743718,2018-07-27,138383.0,Appartement,0.0,19.0,,1.0,,7283.0,3.0,RUE BALZAC,0652,75008.0,75108,Paris 8e Arrondissement,75,75108000AV0044,2.300045,48.873495
228,2018-743719,2018-07-13,700000.0,Appartement,0.0,65.0,64.9,3.0,10786.0,10769.0,6.0,RUE DE VEZELAY,9723,75008.0,75108,Paris 8e Arrondissement,75,75108000CH0031,2.314762,48.878125
229,2018-743720,2018-07-25,300000.0,Appartement,0.0,28.0,23.41,2.0,12815.0,10714.0,3.0,RUE DE VEZELAY,9723,75008.0,75108,Paris 8e Arrondissement,75,75108000CH0014,2.314295,48.877953
230,2018-743721,2018-07-20,630000.0,Appartement,0.0,50.0,45.89,2.0,13728.0,12600.0,77.0,RUE CHARLOT,1880,75003.0,75103,Paris 3e Arrondissement,75,75103000AH0022,2.364021,48.864435
231,2018-743722,2018-07-10,270000.0,Appartement,0.0,23.0,22.3,1.0,12108.0,11739.0,51.0,RUE NOTRE DAME DE NAZARETH,6834,75003.0,75103,Paris 3e Arrondissement,75,75103000AB0085,2.356795,48.86752
232,2018-743723,2018-07-23,669720.0,Appartement,0.0,51.0,48.12,3.0,13918.0,13132.0,75.0,RUE DES ARCHIVES,0420,75003.0,75103,Paris 3e Arrondissement,75,75103000AI0051,2.359595,48.863031
235,2018-743725,2018-07-17,280000.0,Appartement,0.0,26.0,22.92,1.0,12216.0,10769.0,10.0,RUE DES GRAVILLIERS,4302,75003.0,75103,Paris 3e Arrondissement,75,75103000AE0079,2.357878,48.863657
236,2018-743726,2018-07-03,712500.0,Appartement,0.0,54.0,53.53,2.0,13310.0,13194.0,38.0,RUE CHAPON,1771,75003.0,75103,Paris 3e Arrondissement,75,75103000AV0043,2.354747,48.863879
237,2018-743727,2018-07-09,652600.0,Appartement,0.0,50.0,48.65,2.0,13414.0,13052.0,23.0,RUE DE WASHINGTON,9942,75008.0,75108,Paris 8e Arrondissement,75,75108000AU0037,2.302997,48.873344
238,2018-743728,2018-07-19,64000.0,Appartement,0.0,9.0,,1.0,,7111.0,32.0,RUE MESLAY,6286,75003.0,75103,Paris 3e Arrondissement,75,75103000AF0002,2.359149,48.868113
239,2018-743729,2018-07-25,311250.0,Appartement,0.0,25.0,22.18,1.0,14033.0,12450.0,12.0,CITE DUPETIT THOUARS,2996,75003.0,75103,Paris 3e Arrondissement,75,75103000AG0069,2.362681,48.866103
241,2018-743730,2018-07-19,810000.0,Appartement,0.0,64.0,64.14,3.0,12629.0,12656.0,19.0,RUE CAMBACERES,1443,75008.0,75108,Paris 8e Arrondissement,75,75108000BM0022,2.317676,48.872936
243,2018-743732,2018-07-12,1579000.0,Appartement,0.0,150.0,143.65,5.0,10992.0,10527.0,7.0,RUE PIERRE LE GRAND,7447,75008.0,75108,Paris 8e Arrondissement,75,75108000AY0022,2.301014,48.878069
245,2018-743734,2018-07-02,650000.0,Appartement,0.0,72.0,60.67,2.0,10714.0,9028.0,16.0,RUE CHAPON,1771,75003.0,75103,Paris 3e Arrondissement,75,75103000AS0035,2.356381,48.863503
249,2018-743736,2018-07-24,341000.0,Appartement,0.0,38.0,37.11,2.0,9189.0,8974.0,48.0,RUE DES FRANCS BOURGEOIS,3820,75003.0,75103,Paris 3e Arrondissement,75,75103000AP0041,2.358631,48.859078
250,2018-743737,2018-07-03,450000.0,Appartement,0.0,30.0,32.1,1.0,14019.0,15000.0,52.0,RUE DU FAUBOURG SAINT HONORE,3518,75008.0,75108,Paris 8e Arrondissement,75,75108000BN0029,2.320183,48.869787
251,2018-743738,2018-07-13,4100000.0,Appartement,0.0,199.0,,4.0,,20603.0,60.0,RUE DE TURENNE,9506,75003.0,75103,Paris 3e Arrondissement,75,75103000AM0112,2.364953,48.859061
254,2018-743739,2018-07-24,200.0,Appartement,0.0,17.0,,1.0,,12.0,1.0,RUE PERREE,7281,75003.0,75103,Paris 3e Arrondissement,75,75103000AH0094,2.362554,48.86377
258,2018-743742,2018-07-30,225000.0,Appartement,0.0,15.0,15.5,1.0,14516.0,15000.0,220.0,RUE DE RIVOLI,8249,75001.0,75101,Paris 1er Arrondissement,75,75101000AY0013,2.329031,48.865065
259,2018-743743,2018-07-05,230000.0,Appartement,0.0,27.0,,2.0,,8519.0,6.0,CITE NOEL,6792,75003.0,75103,Paris 3e Arrondissement,75,75103000AT0081,2.354407,48.86134
271,2018-743749,2018-07-11,420000.0,Appartement,0.0,40.0,40.07,2.0,10482.0,10500.0,75.0,RUE SAINT HONORE,8635,75001.0,75101,Paris 1er Arrondissement,75,75101000AT0085,2.344096,48.861015
272,2018-743750,2018-07-04,597000.0,Appartement,0.0,45.0,,2.0,,13267.0,106.0,RUE DE TURENNE,9506,75003.0,75103,Paris 3e Arrondissement,75,75103000AJ0024,2.364917,48.862766
273,2018-743751,2018-07-27,272380.0,Appartement,0.0,23.0,,2.0,,11843.0,191.0,RUE SAINT HONORE,8635,75001.0,75101,Paris 1er Arrondissement,75,75101000AX0011,2.332125,48.864553
274,2018-743752,2018-07-26,475000.0,Appartement,0.0,51.0,46.8,2.0,10150.0,9314.0,20.0,RUE VILLEHARDOUIN,9828,75003.0,75103,Paris 3e Arrondissement,75,75103000AM0110,2.365153,48.858916
276,2018-743754,2018-07-05,135000.0,Appartement,0.0,150.0,12.9,6.0,10465.0,900.0,84.0,RUE DE MONCEAU,6419,75008.0,75108,Paris 8e Arrondissement,75,75108000CG0077,2.316285,48.880128
277,2018-743755,2018-07-11,438000.0,Appartement,0.0,50.0,47.66,1.0,9190.0,8760.0,7.0,RUE DU CYGNE,2502,75001.0,75101,Paris 1er Arrondissement,75,75101000AQ0163,2.349102,48.863161
279,2018-743757,2018-07-18,925000.0,Appartement,0.0,58.0,57.65,3.0,16045.0,15948.0,31.0,RUE DES PETITS CHAMPS,7348,75001.0,75101,Paris 1er Arrondissement,75,75101000AW0033,2.336791,48.866594
281,2018-743758,2018-07-30,337000.0,Appartement,0.0,25.0,25.51,1.0,13211.0,13480.0,42.0,RUE CHAPON,1771,75003.0,75103,Paris 3e Arrondissement,75,75103000AV0045,2.354609,48.864028
282,2018-743759,2018-07-11,152000.0,Appartement,0.0,35.0,29.31,1.0,5186.0,4343.0,20.0,RUE DU LOUVRE,5825,75001.0,75101,Paris 1er Arrondissement,75,75101000AT0168,2.341374,48.861483
283,2018-743760,2018-07-19,500.0,Appartement,0.0,18.0,,1.0,,28.0,26.0,AV DE MESSINE,6296,75008.0,75108,Paris 8e Arrondissement,75,75108000CL0043,2.312292,48.877038
284,2018-743761,2018-07-16,1720000.0,Appartement,0.0,104.0,105.85,4.0,16249.0,16538.0,21.0,RUE CHARLOT,1880,75003.0,75103,Paris 3e Arrondissement,75,75103000AI0115,2.361325,48.862146
285,2018-743762,2018-07-06,345000.0,Appartement,0.0,33.0,32.17,1.0,10724.0,10455.0,3.0,RUE SAINTE APOLLINE,8538,75003.0,75103,Paris 3e Arrondissement,75,75103000AB0129,2.355071,48.86863
286,2018-743763,2018-07-18,260500.0,Appartement,0.0,21.0,21.93,1.0,11879.0,12405.0,24.0,RUE BEAUBOURG,0759,75003.0,75103,Paris 3e Arrondissement,75,75103000AT0014,2.354034,48.861513
293,2018-743767,2018-07-23,1369220.0,Appartement,0.0,115.0,110.04,4.0,12443.0,11906.0,4.0,RUE DES FILLES DU CALVAIRE,3643,75003.0,75103,Paris 3e Arrondissement,75,75103000AK0016,2.365173,48.861978
297,2018-743770,2018-07-26,1250000.0,Appartement,0.0,103.0,89.17,5.0,14018.0,12136.0,11.0,RUE VILLEHARDOUIN,9828,75003.0,75103,Paris 3e Arrondissement,75,75103000AM0028,2.365159,48.858697
299,2018-743772,2018-07-10,1210000.0,Appartement,0.0,102.0,102.6,4.0,11793.0,11863.0,8.0,RUE DE HESSE,4629,75003.0,75103,Paris 3e Arrondissement,75,75103000AM0116,2.365997,48.859077
301,2018-743773,2018-07-30,1133790.0,Appartement,0.0,92.0,95.34,4.0,11892.0,12324.0,83.0,BD DE COURCELLES,2386,75008.0,75108,Paris 8e Arrondissement,75,75108000AY0016,2.300027,48.877899
303,2018-743774,2018-07-12,480000.0,Appartement,0.0,45.0,25.53,2.0,18801.0,10667.0,28.0,RUE DU MONT THABOR,6537,75001.0,75101,Paris 1er Arrondissement,75,75101000BD0033,2.327034,48.866438
304,2018-743775,2018-07-12,1793400.0,Appartement,0.0,165.0,190.41,5.0,9419.0,10869.0,32.0,RUE DE WASHINGTON,9942,75008.0,75108,Paris 8e Arrondissement,75,75108000BF0025,2.304074,48.873481
305,2018-743776,2018-07-11,210000.0,Appartement,0.0,58.0,53.25,3.0,3944.0,3621.0,20.0,RUE DU LOUVRE,5825,75001.0,75101,Paris 1er Arrondissement,75,75101000AT0168,2.341374,48.861483
307,2018-743777,2018-07-02,1322000.0,Appartement,0.0,105.0,104.13,3.0,12696.0,12590.0,26.0,RUE DE LA BIENFAISANCE,0960,75008.0,75108,Paris 8e Arrondissement,75,75108000CI0034,2.316682,48.876771
309,2018-743778,2018-07-06,460000.0,Appartement,0.0,34.0,34.4,2.0,13372.0,13529.0,68.0,RUE NOTRE DAME DE NAZARETH,6834,75003.0,75103,Paris 3e Arrondissement,75,75103000AB0056,2.356388,48.867992
310,2018-743779,2018-07-19,570000.0,Appartement,0.0,52.0,53.58,2.0,10638.0,10962.0,20.0,RUE CHARLOT,1880,75003.0,75103,Paris 3e Arrondissement,75,75103000AK0102,2.361853,48.86195
312,2018-743781,2018-07-18,390000.0,Appartement,0.0,35.0,,1.0,,11143.0,3.0,RUE DE L ISLY,4748,75008.0,75108,Paris 8e Arrondissement,75,75108000BU0047,2.32618,48.874609
314,2018-743783,2018-07-12,97000.0,Appartement,0.0,8.0,7.65,1.0,12680.0,12125.0,55.0,RUE DES ARCHIVES,0420,75003.0,75103,Paris 3e Arrondissement,75,75103000AR0004,2.358298,48.861636
315,2018-743784,2018-07-17,840000.0,Appartement,0.0,72.0,76.41,4.0,10993.0,11667.0,19.0,RUE DE NAPLES,6675,75008.0,75108,Paris 8e Arrondissement,75,75108000CF0078,2.319522,48.87957
316,2018-743785,2018-07-26,890000.0,Appartement,0.0,92.0,92.26,4.0,9647.0,9674.0,6.0,RUE DE SAINT PETERSBOURG,8724,75008.0,75108,Paris 8e Arrondissement,75,75108000BZ0052,2.324524,48.879853
317,2018-743786,2018-07-27,179000.0,Appartement,0.0,18.0,14.35,1.0,12474.0,9944.0,100.0,RUE DE TURENNE,9506,75003.0,75103,Paris 3e Arrondissement,75,75103000AJ0028,2.364907,48.862469
319,2018-743788,2018-07-09,320500.0,Appartement,0.0,24.0,25.17,2.0,12733.0,13354.0,40.0,RUE NOTRE DAME DE NAZARETH,6834,75003.0,75103,Paris 3e Arrondissement,75,75103000AB0067,2.358455,48.867684
322,2018-743790,2018-07-23,780275.0,Appartement,0.0,117.0,114.7,4.0,6803.0,6669.0,24.0,RUE DE TEHERAN,9185,75008.0,75108,Paris 8e Arrondissement,75,75108000CH0003,2.313283,48.878169
324,2018-743791,2018-07-16,670650.0,Appartement,0.0,41.0,,1.0,,16357.0,3.0,BD DES FILLES DU CALVAIRE,3642,75003.0,75103,Paris 3e Arrondissement,75,75103000AK0029,2.366876,48.86127
326,2018-743793,2018-07-23,180000.0,Appartement,0.0,14.0,13.73,1.0,13110.0,12857.0,5.0,RUE JEAN JACQUES ROUSSEAU,4901,75001.0,75101,Paris 1er Arrondissement,75,75101000AS0017,2.339872,48.862374
327,2018-743794,2018-08-01,276166.0,Appartement,0.0,82.0,76.3,2.0,3619.0,3368.0,17.0,BD DES FILLES DU CALVAIRE,3642,75003.0,75103,Paris 3e Arrondissement,75,75103000AK0001,2.366434,48.862749
328,2018-743794,2018-08-01,373834.0,Appartement,0.0,111.0,,4.0,,3368.0,17.0,BD DES FILLES DU CALVAIRE,3642,75003.0,75103,Paris 3e Arrondissement,75,75103000AK0001,2.366434,48.862749
329,2018-743795,2018-07-31,145000.0,Appartement,0.0,7.0,13.6,1.0,10662.0,20714.0,5.0,RUE DES PYRAMIDES,7902,75001.0,75101,Paris 1er Arrondissement,75,75101000AX0012,2.332345,48.864465
330,2018-743796,2018-07-26,536250.0,Appartement,0.0,52.0,,2.0,,10312.0,5.0,RUE SAUVAL,8855,75001.0,75101,Paris 1er Arrondissement,75,75101000AT0008,2.342191,48.861947
331,2018-743797,2018-07-26,278000.0,Appartement,0.0,32.0,,1.0,,8688.0,4.0,RUE SAINT GERMAIN L AUXERROIS,8623,75001.0,75101,Paris 1er Arrondissement,75,75101000AN0038,2.345551,48.858236
332,2018-743798,2018-07-31,520000.0,Appartement,0.0,50.0,42.02,2.0,12375.0,10400.0,81.0,RUE DU TEMPLE,9191,75003.0,75103,Paris 3e Arrondissement,75,75103000AT0034,2.355952,48.861719
333,2018-743799,2018-07-31,635000.0,Appartement,0.0,52.0,54.13,3.0,11731.0,12212.0,60.0,RUE DU ROCHER,8291,75008.0,75108,Paris 8e Arrondissement,75,75108000BX0047,2.31965,48.878716
336,2018-743801,2018-08-01,252000.0,Appartement,0.0,26.0,,1.0,,9692.0,25.0,BD DE COURCELLES,2386,75008.0,75108,Paris 8e Arrondissement,75,75108000CG0017,2.314207,48.880778
338,2018-743802,2018-07-16,583000.0,Appartement,0.0,44.0,36.28,3.0,16069.0,13250.0,19.0,RUE DE PENTHIEVRE,7237,75008.0,75108,Paris 8e Arrondissement,75,75108000BM0001,2.316261,48.872774
339,2018-743803,2018-07-26,208000.0,Appartement,0.0,13.0,16.05,1.0,12960.0,16000.0,9.0,RUE DE THORIGNY,9298,75003.0,75103,Paris 3e Arrondissement,75,75103000AL0014,2.363008,48.860054
340,2018-743804,2018-07-09,1281500.0,Appartement,0.0,90.0,86.88,5.0,14750.0,14239.0,133.0,RUE VIEILLE DU TEMPLE,9783,75003.0,75103,Paris 3e Arrondissement,75,75103000AK0064,2.36381,48.86174
341,2018-743805,2018-07-06,144593.0,Appartement,0.0,16.0,,1.0,,9037.0,5.0,RUE DE LABORDE,5200,75008.0,75108,Paris 8e Arrondissement,75,75108000BW0035,2.322612,48.875627
342,2018-743805,2018-07-06,99407.0,Appartement,0.0,11.0,19.8,1.0,5021.0,9037.0,5.0,RUE DE LABORDE,5200,75008.0,75108,Paris 8e Arrondissement,75,75108000BW0035,2.322612,48.875627
343,2018-743806,2018-07-27,246000.0,Appartement,0.0,17.0,16.36,1.0,15037.0,14471.0,65.0,RUE DES GRAVILLIERS,4302,75003.0,75103,Paris 3e Arrondissement,75,75103000AV0033,2.354418,48.864278
344,2018-743807,2018-07-06,600000.0,Appartement,0.0,47.0,47.19,2.0,12715.0,12766.0,9.0,RUE DE DURAS,3033,75008.0,75108,Paris 8e Arrondissement,75,75108000BN0050,2.317852,48.871122
345,2018-743808,2018-07-04,1059100.0,Appartement,0.0,86.0,89.47,4.0,11837.0,12315.0,7.0,RUE LINCOLN,5692,75008.0,75108,Paris 8e Arrondissement,75,75108000AR0007,2.302393,48.870295
346,2018-743809,2018-07-19,425000.0,Appartement,0.0,40.0,,3.0,,10625.0,175.0,RUE DU TEMPLE,9191,75003.0,75103,Paris 3e Arrondissement,75,75103000AE0029,2.359608,48.865377
347,2018-743810,2018-07-25,1549650.0,Appartement,0.0,100.0,95.35,3.0,16252.0,15496.0,57.0,RUE DES MATHURINS,6176,75008.0,75108,Paris 8e Arrondissement,75,75108000BS0003,2.321719,48.873297
350,2018-743813,2018-07-27,459200.0,Appartement,0.0,37.0,39.71,1.0,11564.0,12411.0,93.0,RUE DU ROCHER,8291,75008.0,75108,Paris 8e Arrondissement,75,75108000CG0051,2.31663,48.880903
353,2018-743816,2018-07-30,256000.0,Appartement,0.0,28.0,,2.0,,9143.0,20.0,RUE DES GRAVILLIERS,4302,75003.0,75103,Paris 3e Arrondissement,75,75103000AE0085,2.357139,48.863987
354,2018-743816,2018-07-30,137143.0,Appartement,0.0,15.0,,1.0,,9143.0,20.0,RUE DES GRAVILLIERS,4302,75003.0,75103,Paris 3e Arrondissement,75,75103000AE0085,2.357139,48.863987
355,2018-743816,2018-07-30,246857.0,Appartement,0.0,27.0,47.15,2.0,5236.0,9143.0,20.0,RUE DES GRAVILLIERS,4302,75003.0,75103,Paris 3e Arrondissement,75,75103000AE0085,2.357139,48.863987
357,2018-743818,2018-07-20,405000.0,Appartement,0.0,39.0,39.26,2.0,10316.0,10385.0,123.0,RUE SAINT HONORE,8635,75001.0,75101,Paris 1er Arrondissement,75,75101000AT0169,2.341817,48.861395
358,2018-743819,2018-07-20,194500.0,Appartement,0.0,15.0,,2.0,,12967.0,80.0,RUE DES ARCHIVES,0420,75003.0,75103,Paris 3e Arrondissement,75,75103000AI0063,2.360513,48.862838
359,2018-743820,2018-08-06,342692.0,Appartement,0.0,45.0,,2.0,,7615.0,35.0,RUE DE BERNE,0900,75008.0,75108,Paris 8e Arrondissement,75,75108000CE0039,2.322162,48.881736
360,2018-743820,2018-08-06,152308.0,Appartement,0.0,20.0,41.59,1.0,3662.0,7615.0,35.0,RUE DE BERNE,0900,75008.0,75108,Paris 8e Arrondissement,75,75108000CE0039,2.322162,48.881736
363,2018-743822,2018-07-10,5500000.0,Appartement,0.0,200.0,,6.0,,27500.0,24.0,RUE FRANCOIS 1ER,3814,75008.0,75108,Paris 8e Arrondissement,75,75108000AQ0025,2.305866,48.86749
364,2018-743823,2018-07-09,602705.0,Appartement,0.0,30.0,51.33,2.0,11742.0,20090.0,13.0,RUE DES PYRAMIDES,7902,75001.0,75101,Paris 1er Arrondissement,75,75101000AW0099,2.332852,48.865121
366,2018-743825,2018-07-10,600000.0,Appartement,0.0,58.0,58.0,3.0,10345.0,10345.0,16.0,RUE DES GRAVILLIERS,4302,75003.0,75103,Paris 3e Arrondissement,75,75103000AE0083,2.35749,48.863909
367,2018-743826,2018-07-27,496000.0,Appartement,0.0,43.0,42.25,2.0,11740.0,11535.0,13.0,RUE DES GRAVILLIERS,4302,75003.0,75103,Paris 3e Arrondissement,75,75103000AS0015,2.357217,48.863468
368,2018-743827,2018-07-31,200000.0,Appartement,0.0,14.0,14.28,1.0,14006.0,14286.0,23.0,RUE DU ROULE,8397,75001.0,75101,Paris 1er Arrondissement,75,75101000AT0088,2.343815,48.861116
369,2018-743828,2018-07-27,1118900.0,Appartement,0.0,80.0,81.0,4.0,13814.0,13986.0,7.0,RUE SAINT CLAUDE,8520,75003.0,75103,Paris 3e Arrondissement,75,75103000AM0067,2.36612,48.859871
372,2018-743830,2018-07-23,730000.0,Appartement,0.0,90.0,92.18,3.0,7919.0,8111.0,25.0,BD DU TEMPLE,9190,75003.0,75103,Paris 3e Arrondissement,75,75103000AH0032,2.365172,48.864763
373,2018-743831,2018-07-30,24090.0,Appartement,0.0,62.0,,3.0,,389.0,8.0,RUE DES QUATRE FILS,7913,75003.0,75103,Paris 3e Arrondissement,75,75103000AQ0052,2.360511,48.860377
376,2018-743834,2018-07-16,1560000.0,Appartement,0.0,109.0,102.88,4.0,15163.0,14312.0,6.0,RUE DE FRANCHE COMTE,3781,75003.0,75103,Paris 3e Arrondissement,75,75103000AH0026,2.364302,48.864546
380,2018-743838,2018-07-27,1095100.0,Appartement,0.0,83.0,82.77,4.0,13231.0,13194.0,5.0,RUE GREFFULHE,4304,75008.0,75108,Paris 8e Arrondissement,75,75108000BS0062,2.324889,48.87283
381,2018-743839,2018-07-31,625000.0,Appartement,0.0,69.0,70.71,2.0,8839.0,9058.0,30.0,RUE DE LIEGE,5665,75008.0,75108,Paris 8e Arrondissement,75,75108000BZ0035,2.32583,48.879698
383,2018-743840,2018-07-27,619400.0,Appartement,0.0,40.0,39.21,1.0,15797.0,15485.0,9.0,RUE JEAN GOUJON,4897,75008.0,75108,Paris 8e Arrondissement,75,75108000AL0017,2.308968,48.866147
384,2018-743841,2018-08-01,1685000.0,Appartement,0.0,141.0,135.12,5.0,12470.0,11950.0,17.0,BD SAINT MARTIN,8692,75003.0,75103,Paris 3e Arrondissement,75,75103000AF0008,2.360036,48.867935
385,2018-743842,2018-08-01,90000.0,Appartement,0.0,18.0,18.4,2.0,4891.0,5000.0,25.0,RUE JEAN JACQUES ROUSSEAU,4901,75001.0,75101,Paris 1er Arrondissement,75,75101000AS0005,2.340887,48.862894
387,2018-743844,2018-07-11,622650.0,Appartement,0.0,48.0,46.46,2.0,13402.0,12972.0,10.0,RUE NOTRE DAME DE NAZARETH,6834,75003.0,75103,Paris 3e Arrondissement,75,75103000AF0044,2.361456,48.867178
388,2018-743845,2018-07-31,100.0,Appartement,0.0,71.0,,3.0,,1.0,30.0,RUE DE LIEGE,5665,75008.0,75108,Paris 8e Arrondissement,75,75108000BZ0035,2.32583,48.879698
389,2018-743846,2018-07-31,1100000.0,Appartement,0.0,81.0,77.62,2.0,14172.0,13580.0,36.0,AV GEORGE V,4110,75008.0,75108,Paris 8e Arrondissement,75,75108000AP0022,2.301593,48.869245
390,2018-743847,2018-08-06,15000.0,Appartement,0.0,40.0,,1.0,,375.0,23.0,RUE D ARGENTEUIL,0433,75001.0,75101,Paris 1er Arrondissement,75,75101000AW0112,2.333143,48.866005
391,2018-743848,2018-08-02,810000.0,Appartement,0.0,100.0,99.46,4.0,8144.0,8100.0,28.0,RUE NOTRE DAME DE NAZARETH,6834,75003.0,75103,Paris 3e Arrondissement,75,75103000AF0059,2.359749,48.867463
392,2018-743849,2018-08-08,990000.0,Appartement,0.0,82.0,82.76,4.0,11962.0,12073.0,129.0,RUE DU TEMPLE,9191,75003.0,75103,Paris 3e Arrondissement,75,75103000AE0074,2.35815,48.863513
393,2018-743850,2018-07-27,823450.0,Appartement,0.0,60.0,,3.0,,13724.0,22.0,RUE DUPETIT THOUARS,2997,75003.0,75103,Paris 3e Arrondissement,75,75103000AG0063,2.361407,48.865839
394,2018-743851,2018-08-06,1110000.0,Appartement,0.0,83.0,81.45,5.0,13628.0,13373.0,23.0,RUE D ARGENTEUIL,0433,75001.0,75101,Paris 1er Arrondissement,75,75101000AW0112,2.333143,48.866005
398,2018-743855,2018-07-23,1269100.0,Appartement,0.0,122.0,122.65,5.0,10347.0,10402.0,24.0,RUE DE SAINT PETERSBOURG,8724,75008.0,75108,Paris 8e Arrondissement,75,75108000CD0071,2.325764,48.881334
400,2018-743856,2018-07-25,220000.0,Appartement,0.0,17.0,15.8,1.0,13924.0,12941.0,11.0,RUE THERESE,9260,75001.0,75101,Paris 1er Arrondissement,75,75101000AW0076,2.335815,48.865911
401,2018-743857,2018-07-26,1940000.0,Appartement,0.0,115.0,123.02,5.0,15770.0,16870.0,2.0,RUE GABRIEL VICAIRE,3909,75003.0,75103,Paris 3e Arrondissement,75,75103000AG0046,2.361666,48.864719
403,2018-743859,2018-08-08,950000.0,Appartement,0.0,40.0,67.72,1.0,14028.0,23750.0,6.0,RUE ALFRED DE VIGNY,0179,75008.0,75108,Paris 8e Arrondissement,75,75108000CO0048,2.30545,48.878676
404,2018-743860,2018-08-07,230000.0,Appartement,0.0,40.0,,2.0,,5750.0,9.0,RUE D ANJOU,0351,75008.0,75108,Paris 8e Arrondissement,75,75108000BN0023,2.320394,48.869857
405,2018-743861,2018-07-13,75000.0,Appartement,0.0,105.0,,5.0,,714.0,16.0,RUE DE MARIGNAN,6086,75008.0,75108,Paris 8e Arrondissement,75,75108000AQ0059,2.307122,48.868883
406,2018-743862,2018-07-25,140000.0,Appartement,0.0,11.0,11.53,1.0,12142.0,12727.0,24.0,RUE DE LIEGE,5665,75008.0,75108,Paris 8e Arrondissement,75,75108000BZ0031,2.326215,48.879745
407,2018-743863,2018-07-25,530000.0,Appartement,0.0,50.0,51.04,2.0,10384.0,10600.0,11.0,RUE COMMINES,2249,75003.0,75103,Paris 3e Arrondissement,75,75103000AK0010,2.36569,48.862123
408,2018-743864,2018-07-31,300000.0,Appartement,0.0,30.0,29.51,1.0,10166.0,10000.0,3.0,RUE SAINTE APOLLINE,8538,75003.0,75103,Paris 3e Arrondissement,75,75103000AB0129,2.355071,48.86863
410,2018-743866,2018-07-16,500000.0,Appartement,0.0,47.0,47.48,2.0,10531.0,10638.0,9.0,RUE ARSENE HOUSSAYE,0473,75008.0,75108,Paris 8e Arrondissement,75,75108000AV0013,2.299029,48.874599
412,2018-743868,2018-07-24,155000.0,Appartement,0.0,12.0,11.99,1.0,12927.0,12917.0,39.0,RUE CHAPON,1771,75003.0,75103,Paris 3e Arrondissement,75,75103000AV0064,2.353709,48.863955
413,2018-743869,2018-08-08,437000.0,Appartement,0.0,29.0,31.65,1.0,13807.0,15069.0,23.0,RUE DU FAUBOURG SAINT HONORE,3518,75008.0,75108,Paris 8e Arrondissement,75,75108000BP0025,2.32107,48.868699
414,2018-743870,2018-07-18,748000.0,Appartement,0.0,64.0,66.12,3.0,11313.0,11688.0,6.0,RUE DE VEZELAY,9723,75008.0,75108,Paris 8e Arrondissement,75,75108000CH0031,2.314762,48.878125
415,2018-743871,2018-07-20,295000.0,Appartement,0.0,27.0,19.55,1.0,15090.0,10926.0,54.0,RUE DE L ARBRE SEC,0407,75001.0,75101,Paris 1er Arrondissement,75,75101000AT0112,2.342881,48.861081
416,2018-743872,2018-08-08,300000.0,Appartement,0.0,28.0,22.52,1.0,13321.0,10714.0,143.0,RUE DU TEMPLE,9191,75003.0,75103,Paris 3e Arrondissement,75,75103000AE0066,2.358429,48.863843
425,2018-743876,2018-07-19,680000.0,Appartement,0.0,56.0,53.69,2.0,12665.0,12143.0,38.0,AV GEORGE V,4110,75008.0,75108,Paris 8e Arrondissement,75,75108000AP0020,2.301629,48.869515
427,2018-743877,2018-08-07,760000.0,Appartement,0.0,72.0,69.14,3.0,10992.0,10556.0,131.0,RUE SAINT DENIS,8525,75001.0,75101,Paris 1er Arrondissement,75,75101000AQ0107,2.349513,48.863367
428,2018-743878,2018-08-09,375900.0,Appartement,0.0,26.0,26.35,1.0,14266.0,14458.0,7.0,RUE DE THORIGNY,9298,75003.0,75103,Paris 3e Arrondissement,75,75103000AL0013,2.362813,48.859921
430,2018-743880,2018-07-30,350000.0,Appartement,0.0,28.0,27.68,2.0,12645.0,12500.0,37.0,RUE DE POITOU,7572,75003.0,75103,Paris 3e Arrondissement,75,75103000AQ0032,2.361774,48.861586
433,2018-743882,2018-07-27,1979314.0,Appartement,0.0,149.0,145.6,4.0,13594.0,13284.0,2.0,AV VAN DYCK,9585,75008.0,75108,Paris 8e Arrondissement,75,75108000CO0027,2.305889,48.878013
434,2018-743883,2018-07-30,2387800.0,Appartement,0.0,180.0,178.89,6.0,13348.0,13266.0,81.0,BD MALESHERBES,5951,75008.0,75108,Paris 8e Arrondissement,75,75108000CI0043,2.316212,48.877391
435,2018-743884,2018-07-27,270000.0,Appartement,0.0,25.0,24.53,1.0,11007.0,10800.0,13.0,RUE DANIELLE CASANOVA,2543,75001.0,75101,Paris 1er Arrondissement,75,75101000AZ0040,2.332481,48.86763
439,2018-743887,2018-07-27,866750.0,Appartement,0.0,68.0,66.92,3.0,12952.0,12746.0,23.0,RUE CHARLOT,1880,75003.0,75103,Paris 3e Arrondissement,75,75103000AI0088,2.36149,48.862165
442,2018-743889,2018-07-26,435000.0,Appartement,0.0,35.0,34.23,1.0,12708.0,12429.0,60.0,RUE DE PONTHIEU,7612,75008.0,75108,Paris 8e Arrondissement,75,75108000BF0057,2.305643,48.872341
443,2018-743890,2018-08-13,285000.0,Appartement,0.0,36.0,37.65,1.0,7570.0,7917.0,15.0,RUE D EDIMBOURG,3118,75008.0,75108,Paris 8e Arrondissement,75,75108000BX0026,2.320504,48.879236
444,2018-743891,2018-07-20,4300000.0,Appartement,0.0,251.0,249.3,6.0,17248.0,17131.0,244.0,RUE DE RIVOLI,8249,75001.0,75101,Paris 1er Arrondissement,75,75101000BD0045,2.325491,48.866172
445,2018-743892,2018-08-02,280000.0,Appartement,0.0,33.0,27.05,1.0,10351.0,8485.0,304.0,RUE SAINT HONORE,8635,75001.0,75101,Paris 1er Arrondissement,75,75101000AY0078,2.331921,48.86529
446,2018-743893,2018-08-10,400000.0,Appartement,0.0,52.0,47.85,2.0,8359.0,7692.0,79.0,RUE NOTRE DAME DE NAZARETH,6834,75003.0,75103,Paris 3e Arrondissement,75,75103000AB0107,2.353976,48.867925
448,2018-743895,2018-08-02,360000.0,Appartement,0.0,30.0,28.76,1.0,12517.0,12000.0,7.0,RUE DE LA TREMOILLE,5388,75008.0,75108,Paris 8e Arrondissement,75,75108000AN0006,2.30263,48.867046
449,2018-743896,2018-07-27,222000.0,Appartement,0.0,20.0,21.51,2.0,10321.0,11100.0,68.0,RUE NOTRE DAME DE NAZARETH,6834,75003.0,75103,Paris 3e Arrondissement,75,75103000AB0056,2.356388,48.867992
450,2018-743897,2018-07-31,1075000.0,Appartement,0.0,90.0,85.02,4.0,12644.0,11944.0,7.0,RUE ANDRIEUX,0337,75008.0,75108,Paris 8e Arrondissement,75,75108000CF0013,2.318854,48.881058
451,2018-743898,2018-08-01,130000.0,Appartement,0.0,16.0,17.65,2.0,7365.0,8125.0,5.0,RUE DE TEHERAN,9185,75008.0,75108,Paris 8e Arrondissement,75,75108000CL0058,2.312379,48.875738
455,2018-743901,2018-07-27,133000.0,Appartement,0.0,12.0,12.6,1.0,10556.0,11083.0,23.0,RUE DES LAVANDIERES STE OPPORT,5409,75001.0,75101,Paris 1er Arrondissement,75,75101000AO0105,2.346377,48.859357
458,2018-743904,2018-07-26,2232500.0,Appartement,0.0,191.0,206.67,7.0,10802.0,11688.0,22.0,AV DE FRIEDLAND,3868,75008.0,75108,Paris 8e Arrondissement,75,75108000AV0024,2.300368,48.87479
459,2018-743905,2018-07-31,410000.0,Appartement,0.0,28.0,37.34,1.0,10980.0,14643.0,28.0,RUE DE POITOU,7572,75003.0,75103,Paris 3e Arrondissement,75,75103000AK0091,2.362506,48.861703
461,2018-743906,2018-08-01,90000.0,Appartement,1.0,62.0,8.24,4.0,10922.0,1452.0,36.0,RUE DES BOURDONNAIS,1193,75001.0,75101,Paris 1er Arrondissement,75,75101000AO0119,2.345655,48.860345
462,2018-743907,2018-07-30,310000.0,Appartement,0.0,24.0,,2.0,,12917.0,11.0,RUE DU CIRQUE,2049,75008.0,75108,Paris 8e Arrondissement,75,75108000BJ0031,2.314538,48.870702
464,2018-743908,2018-07-25,235000.0,Appartement,0.0,22.0,25.28,1.0,9296.0,10682.0,92.0,RUE DE TURENNE,9506,75003.0,75103,Paris 3e Arrondissement,75,75103000AK0049,2.364824,48.861725
465,2018-743909,2018-08-01,425000.0,Appartement,0.0,34.0,35.58,2.0,11945.0,12500.0,9.0,RUE DE BRAQUE,1261,75003.0,75103,Paris 3e Arrondissement,75,75103000AT0062,2.356138,48.861052
466,2018-743910,2018-08-07,180000.0,Appartement,0.0,17.0,,1.0,,10588.0,31.0,RUE CHARLOT,1880,75003.0,75103,Paris 3e Arrondissement,75,75103000AI0084,2.361698,48.862514
467,2018-743911,2018-07-26,2810000.0,Appartement,0.0,208.0,225.62,6.0,12455.0,13510.0,58.0,RUE DE MONCEAU,6419,75008.0,75108,Paris 8e Arrondissement,75,75108000CM0036,2.312291,48.878204
469,2018-743912,2018-08-10,2160000.0,Appartement,0.0,170.0,,5.0,,12706.0,25.0,RUE MARBEUF,5993,75008.0,75108,Paris 8e Arrondissement,75,75108000AR0060,2.304234,48.869357
470,2018-743913,2018-08-23,1820000.0,Appartement,0.0,113.0,115.97,5.0,15694.0,16106.0,179.0,RUE SAINT HONORE,8635,75001.0,75101,Paris 1er Arrondissement,75,75101000AX0092,2.333161,48.864135
472,2018-743914,2018-08-07,267770.0,Appartement,0.0,20.0,27.83,1.0,9622.0,13388.0,76.0,RUE DU VERTBOIS,9711,75003.0,75103,Paris 3e Arrondissement,75,75103000AB0146,2.355225,48.86775
474,2018-743916,2018-08-17,800000.0,Appartement,0.0,78.0,79.0,4.0,10127.0,10256.0,10.0,RUE DE NAPLES,6675,75008.0,75108,Paris 8e Arrondissement,75,75108000CF0092,2.319977,48.8799
475,2018-743917,2018-07-31,2180000.0,Appartement,0.0,138.0,,5.0,,15797.0,17.0,RUE DE LA TREMOILLE,5388,75008.0,75108,Paris 8e Arrondissement,75,75108000AN0031,2.303754,48.867834
477,2018-743918,2018-08-21,280000.0,Appartement,0.0,27.0,,1.0,,10370.0,16.0,RUE CLAPEYRON,2067,75008.0,75108,Paris 8e Arrondissement,75,75108000CD0006,2.323998,48.88215
480,2018-743920,2018-07-30,715000.0,Appartement,0.0,60.0,62.01,3.0,11530.0,11917.0,28.0,RUE MESLAY,6286,75003.0,75103,Paris 3e Arrondissement,75,75103000AF0005,2.359613,48.867994
483,2018-743923,2018-07-31,790000.0,Appartement,0.0,74.0,72.87,3.0,10841.0,10676.0,6.0,RUE SAUVAL,8855,75001.0,75101,Paris 1er Arrondissement,75,75101000AT0017,2.34269,48.861751
484,2018-743924,2018-08-06,155000.0,Appartement,0.0,20.0,,1.0,,7750.0,29.0,RUE SAINT DENIS,8525,75001.0,75101,Paris 1er Arrondissement,75,75101000AO0064,2.34793,48.859905
485,2018-743925,2018-07-30,955000.0,Appartement,0.0,50.0,44.45,1.0,21485.0,19100.0,29.0,PL DAUPHINE,2594,75001.0,75101,Paris 1er Arrondissement,75,75101000AL0033,2.341566,48.856822
486,2018-743926,2018-08-02,172800.0,Appartement,0.0,20.0,18.12,1.0,9536.0,8640.0,86.0,RUE DES TOURNELLES,9382,75003.0,75103,Paris 3e Arrondissement,75,75103000AM0080,2.367399,48.858393
487,2018-743927,2018-08-03,3300000.0,Appartement,0.0,107.0,127.05,4.0,25974.0,30841.0,5.0,AV FRANKLIN D ROOSEVELT,3824,75008.0,75108,Paris 8e Arrondissement,75,75108000AL0012,2.309849,48.86559
489,2018-743929,2018-08-24,414600.0,Appartement,0.0,36.0,38.91,2.0,10655.0,11517.0,27.0,BD SAINT MARTIN,8692,75003.0,75103,Paris 3e Arrondissement,75,75103000AF0001,2.358984,48.868129
500,2018-743931,2018-08-23,1358800.0,Appartement,0.0,120.0,110.01,4.0,12352.0,11323.0,5.0,RUE SAINTE ANASTASE,8531,75003.0,75103,Paris 3e Arrondissement,75,75103000AM0013,2.363957,48.859395
501,2018-743932,2018-08-03,1671000.0,Appartement,0.0,156.0,148.99,5.0,11216.0,10712.0,8.0,RUE QUENTIN BAUCHART,7954,75008.0,75108,Paris 8e Arrondissement,75,75108000AP0076,2.299963,48.868971
502,2018-743933,2018-08-01,3400000.0,Appartement,0.0,120.0,176.01,4.0,19317.0,28333.0,35.0,AV MATIGNON,6178,75008.0,75108,Paris 8e Arrondissement,75,75108000BK0061,2.314153,48.872226
504,2018-743934,2018-08-27,325000.0,Appartement,0.0,30.0,30.02,2.0,10826.0,10833.0,9.0,RUE DE MIROMESNIL,6387,75008.0,75108,Paris 8e Arrondissement,75,75108000BK0048,2.315815,48.871796
505,2018-743935,2018-08-28,366200.0,Appartement,0.0,32.0,31.91,1.0,11476.0,11444.0,13.0,RUE DE LA FERRONNERIE,3621,75001.0,75101,Paris 1er Arrondissement,75,75101000AO0073,2.347516,48.860102
507,2018-743936,2018-08-02,540000.0,Appartement,0.0,59.0,57.38,2.0,9411.0,9153.0,6.0,RUE DES HAUDRIETTES,4483,75003.0,75103,Paris 3e Arrondissement,75,75103000AR0005,2.357892,48.86205
508,2018-743937,2018-08-03,252240.0,Appartement,0.0,18.0,15.95,1.0,15814.0,14013.0,8.0,RUE DE PICARDIE,7395,75003.0,75103,Paris 3e Arrondissement,75,75103000AH0081,2.362504,48.863349
509,2018-743938,2018-08-03,405000.0,Appartement,0.0,60.0,61.68,2.0,6566.0,6750.0,6.0,RUE PIERRE LE GRAND,7447,75008.0,75108,Paris 8e Arrondissement,75,75108000AY0027,2.301569,48.878284
510,2018-743939,2018-08-08,530000.0,Appartement,0.0,48.0,48.3,2.0,10973.0,11042.0,11.0,RUE DU PERCHE,7248,75003.0,75103,Paris 3e Arrondissement,75,75103000AQ0050,2.360825,48.860798
511,2018-743940,2018-08-01,255000.0,Appartement,0.0,24.0,,2.0,,10625.0,30.0,RUE BEAUBOURG,0759,75003.0,75103,Paris 3e Arrondissement,75,75103000AT0078,2.354479,48.861846
512,2018-743941,2018-08-10,377000.0,Appartement,0.0,30.0,34.0,1.0,11088.0,12567.0,10.0,RUE ROGER VERLOMME,8308,75003.0,75103,Paris 3e Arrondissement,75,75103000AN0069,2.366685,48.856882
513,2018-743942,2018-08-29,270300.0,Appartement,0.0,31.0,31.35,2.0,8622.0,8719.0,10.0,RUE DE COPENHAGUE,2306,75008.0,75108,Paris 8e Arrondissement,75,75108000CF0044,2.320118,48.880392
514,2018-743943,2018-08-03,1233000.0,Appartement,0.0,100.0,100.88,3.0,12222.0,12330.0,31.0,RUE DES BOURDONNAIS,1193,75001.0,75101,Paris 1er Arrondissement,75,75101000AO0127,2.344808,48.860133
515,2018-743944,2018-08-09,148148.0,Appartement,0.0,12.0,12.86,1.0,11520.0,12346.0,8.0,RUE THERESE,9260,75001.0,75101,Paris 1er Arrondissement,75,75101000AW0049,2.335947,48.866158
516,2018-743945,2018-08-28,1883500.0,Appartement,0.0,120.0,122.95,5.0,15319.0,15696.0,51.0,RUE SAINT ROCH,8740,75001.0,75101,Paris 1er Arrondissement,75,75101000AZ0052,2.333065,48.866833
517,2018-743946,2018-08-09,205000.0,Appartement,0.0,16.0,19.17,1.0,10694.0,12812.0,29.0,RUE DE TURIN,9510,75008.0,75108,Paris 8e Arrondissement,75,75108000CD0004,2.324037,48.882343
519,2018-743947,2018-08-28,1309000.0,Appartement,1.0,105.0,103.13,4.0,12693.0,12467.0,5.0,RUE LARRIBE,5364,75008.0,75108,Paris 8e Arrondissement,75,75108000CF0108,2.317894,48.88038
520,2018-743948,2018-08-22,495000.0,Appartement,0.0,30.0,34.85,2.0,14204.0,16500.0,25.0,RUE DE POITOU,7572,75003.0,75103,Paris 3e Arrondissement,75,75103000AQ0073,2.362475,48.861495
521,2018-743949,2018-08-10,285051.0,Appartement,0.0,68.0,67.55,3.0,4220.0,4192.0,165.0,BD HAUSSMANN,4485,75008.0,75108,Paris 8e Arrondissement,75,75108000BD0050,2.308008,48.874781
522,2018-743949,2018-08-10,544949.0,Appartement,0.0,130.0,,5.0,,4192.0,165.0,BD HAUSSMANN,4485,75008.0,75108,Paris 8e Arrondissement,75,75108000BD0050,2.308008,48.874781
523,2018-743950,2018-08-10,256831.0,Appartement,0.0,22.0,21.52,1.0,11935.0,11674.0,22.0,RUE REAUMUR,8073,75003.0,75103,Paris 3e Arrondissement,75,75103000AE0019,2.358527,48.865234
524,2018-743951,2018-08-22,190000.0,Appartement,0.0,18.0,18.1,1.0,10497.0,10556.0,72.0,RUE DES GRAVILLIERS,4302,75003.0,75103,Paris 3e Arrondissement,75,75103000AD0043,2.354691,48.864578
526,2018-743953,2018-08-09,416542.0,Appartement,0.0,20.0,18.0,1.0,23141.0,20827.0,10.0,RUE BAILLET,0630,75001.0,75101,Paris 1er Arrondissement,75,75101000AK0033,2.342305,48.859904
527,2018-743953,2018-08-09,812258.0,Appartement,0.0,39.0,20.0,2.0,40613.0,20827.0,10.0,RUE BAILLET,0630,75001.0,75101,Paris 1er Arrondissement,75,75101000AK0033,2.342305,48.859904
529,2018-743955,2018-08-31,620000.0,Appartement,0.0,60.0,52.08,3.0,11905.0,10333.0,53.0,RUE CHARLOT,1880,75003.0,75103,Paris 3e Arrondissement,75,75103000AH0073,2.362908,48.863415
530,2018-743956,2018-08-09,440000.0,Appartement,0.0,30.0,35.78,2.0,12297.0,14667.0,28.0,RUE MESLAY,6286,75003.0,75103,Paris 3e Arrondissement,75,75103000AF0005,2.359613,48.867994
531,2018-743957,2018-08-10,1360000.0,Appartement,0.0,134.0,134.39,4.0,10120.0,10149.0,3.0,AV HOCHE,4645,75008.0,75108,Paris 8e Arrondissement,75,75108000BC0012,2.304807,48.877419
533,2018-743958,2018-09-03,470000.0,Appartement,0.0,33.0,33.05,2.0,14221.0,14242.0,20.0,RUE CHARLOT,1880,75003.0,75103,Paris 3e Arrondissement,75,75103000AK0102,2.361853,48.86195
534,2018-743959,2018-09-03,640000.0,Appartement,0.0,42.0,,3.0,,15238.0,75.0,RUE DES ARCHIVES,0420,75003.0,75103,Paris 3e Arrondissement,75,75103000AI0051,2.359595,48.863031
536,2018-743960,2018-09-05,684970.0,Appartement,0.0,65.0,63.99,3.0,10704.0,10538.0,33.0,RUE DU ROCHER,8291,75008.0,75108,Paris 8e Arrondissement,75,75108000BX0070,2.320954,48.877201
537,2018-743961,2018-09-05,568000.0,Appartement,0.0,40.0,35.83,2.0,15853.0,14200.0,19.0,PL DU MARCHE ST HONORE,6033,75001.0,75101,Paris 1er Arrondissement,75,75101000AZ0030,2.330927,48.866588
538,2018-743962,2018-08-07,1116225.0,Appartement,0.0,83.0,83.62,3.0,13349.0,13448.0,24.0,RUE D ANJOU,0351,75008.0,75108,Paris 8e Arrondissement,75,75108000BS0146,2.321868,48.871282
540,2018-743963,2018-09-04,829070.0,Appartement,0.0,80.0,78.31,3.0,10587.0,10363.0,14.0,RUE DU PONT AUX CHOUX,7605,75003.0,75103,Paris 3e Arrondissement,75,75103000AK0040,2.365586,48.861323
541,2018-743964,2018-09-04,577000.0,Appartement,0.0,34.0,,1.0,,16971.0,230.0,RUE DU FAUBOURG SAINT HONORE,3518,75008.0,75108,Paris 8e Arrondissement,75,75108000BC0036,2.303375,48.876388
542,2018-743965,2018-09-05,519170.0,Appartement,0.0,59.0,53.92,2.0,9629.0,8799.0,98.0,RUE DE MIROMESNIL,6387,75008.0,75108,Paris 8e Arrondissement,75,75108000CG0090,2.315835,48.879708
543,2018-743966,2018-09-04,1100000.0,Appartement,0.0,90.0,118.99,4.0,9244.0,12222.0,31.0,BD SAINT MARTIN,8692,75003.0,75103,Paris 3e Arrondissement,75,75103000AB0025,2.358278,48.86823
544,2018-743967,2018-08-07,300600.0,Appartement,0.0,25.0,22.07,1.0,13620.0,12024.0,53.0,RUE MESLAY,6286,75003.0,75103,Paris 3e Arrondissement,75,75103000AB0035,2.35742,48.86789
547,2018-743969,2018-08-24,868611.0,Appartement,0.0,106.0,105.57,4.0,8228.0,8194.0,3.0,RUE PAPIN,7040,75003.0,75103,Paris 3e Arrondissement,75,75103000AD0008,2.353746,48.866718
548,2018-743969,2018-08-24,311389.0,Appartement,0.0,38.0,,2.0,,8194.0,3.0,RUE PAPIN,7040,75003.0,75103,Paris 3e Arrondissement,75,75103000AD0008,2.353746,48.866718
549,2018-743970,2018-09-05,211000.0,Appartement,0.0,18.0,,1.0,,11722.0,80.0,RUE DES ARCHIVES,0420,75003.0,75103,Paris 3e Arrondissement,75,75103000AI0063,2.360513,48.862838
552,2018-743971,2018-08-31,2008000.0,Appartement,0.0,214.0,194.74,4.0,10311.0,9383.0,19.0,BD DE COURCELLES,2386,75008.0,75108,Paris 8e Arrondissement,75,75108000CG0029,2.314825,48.880719
556,2018-743973,2018-08-31,1621559.0,Appartement,0.0,177.0,176.72,6.0,9176.0,9161.0,4.0,RUE GREFFULHE,4304,75008.0,75108,Paris 8e Arrondissement,75,75108000BS0080,2.325453,48.872603
557,2018-743973,2018-08-31,274841.0,Appartement,0.0,30.0,,1.0,,9161.0,4.0,RUE GREFFULHE,4304,75008.0,75108,Paris 8e Arrondissement,75,75108000BS0080,2.325453,48.872603
558,2018-743974,2018-08-28,200000.0,Appartement,0.0,18.0,14.89,1.0,13432.0,11111.0,100.0,RUE DE TURENNE,9506,75003.0,75103,Paris 3e Arrondissement,75,75103000AJ0028,2.364907,48.862469
561,2018-743977,2018-08-31,320000.0,Appartement,0.0,35.0,34.32,1.0,9324.0,9143.0,59.0,RUE DES GRAVILLIERS,4302,75003.0,75103,Paris 3e Arrondissement,75,75103000AV0036,2.354614,48.864202
562,2018-743978,2018-08-29,493000.0,Appartement,0.0,33.0,32.03,1.0,15392.0,14939.0,16.0,RUE DU PARC ROYAL,7061,75003.0,75103,Paris 3e Arrondissement,75,75103000AM0105,2.362974,48.859331
564,2018-743980,2018-08-30,302170.0,Appartement,0.0,22.0,,2.0,,13735.0,6.0,CITE NOEL,6792,75003.0,75103,Paris 3e Arrondissement,75,75103000AT0081,2.354407,48.86134
566,2018-743981,2018-08-23,440000.0,Appartement,0.0,37.0,36.02,2.0,12215.0,11892.0,60.0,RUE DES MATHURINS,6176,75008.0,75108,Paris 8e Arrondissement,75,75108000BT0033,2.321879,48.87354
568,2018-743983,2018-08-10,1047000.0,Appartement,0.0,68.0,78.47,2.0,13343.0,15397.0,32.0,RUE DE TURBIGO,9504,75003.0,75103,Paris 3e Arrondissement,75,75103000AV0018,2.352716,48.864473
569,2018-743984,2018-09-05,15000.0,Appartement,0.0,40.0,,1.0,,375.0,3.0,RUE DU PERCHE,7248,75003.0,75103,Paris 3e Arrondissement,75,75103000AQ0061,2.36155,48.860561
570,2018-743985,2018-08-28,572000.0,Appartement,0.0,52.0,52.0,2.0,11000.0,11000.0,42.0,RUE CHAPON,1771,75003.0,75103,Paris 3e Arrondissement,75,75103000AV0045,2.354609,48.864028
571,2018-743986,2018-09-06,700000.0,Appartement,0.0,63.0,59.83,2.0,11700.0,11111.0,132.0,RUE DE TURENNE,9506,75003.0,75103,Paris 3e Arrondissement,75,75103000AH0043,2.365064,48.864411
573,2018-743988,2018-08-30,477510.0,Appartement,0.0,39.0,,2.0,,12244.0,33.0,RUE DE POITOU,7572,75003.0,75103,Paris 3e Arrondissement,75,75103000AQ0034,2.361951,48.861591
574,2018-743989,2018-08-21,355000.0,Appartement,0.0,28.0,27.17,2.0,13066.0,12679.0,12.0,RUE DE LA SOURDIERE,5368,75001.0,75101,Paris 1er Arrondissement,75,75101000AY0111,2.332104,48.86563
576,2018-743990,2018-08-23,395000.0,Appartement,0.0,24.0,31.06,2.0,12717.0,16458.0,139.0,RUE DU FAUBOURG SAINT HONORE,3518,75008.0,75108,Paris 8e Arrondissement,75,75108000BE0007,2.307472,48.873905
577,2018-743991,2018-08-27,170000.0,Appartement,0.0,17.0,14.17,1.0,11997.0,10000.0,55.0,BD MALESHERBES,5951,75008.0,75108,Paris 8e Arrondissement,75,75108000CI0062,2.318369,48.875714
578,2018-743992,2018-08-29,685000.0,Appartement,0.0,73.0,60.26,2.0,11367.0,9384.0,48.0,RUE DE BERRI,0904,75008.0,75108,Paris 8e Arrondissement,75,75108000BD0048,2.308306,48.874454
579,2018-743993,2018-09-04,710000.0,Appartement,0.0,52.0,50.02,3.0,14194.0,13654.0,121.0,RUE SAINT HONORE,8635,75001.0,75101,Paris 1er Arrondissement,75,75101000AT0169,2.341817,48.861395
580,2018-743994,2018-08-28,100000.0,Appartement,0.0,16.0,11.04,1.0,9058.0,6250.0,127.0,RUE SAINT DENIS,8525,75001.0,75101,Paris 1er Arrondissement,75,75101000AQ0104,2.349593,48.863227
581,2018-743995,2018-08-30,440000.0,Appartement,0.0,39.0,35.54,1.0,12380.0,11282.0,76.0,AV DES CHAMPS ELYSEES,1733,75008.0,75108,Paris 8e Arrondissement,75,75108000BG0009,2.304678,48.871669
583,2018-743997,2018-09-05,430000.0,Appartement,0.0,34.0,33.5,1.0,12836.0,12647.0,27.0,RUE MARBEUF,5993,75008.0,75108,Paris 8e Arrondissement,75,75108000AR0060,2.304234,48.869357
584,2018-743998,2018-08-31,1044352.0,Appartement,0.0,95.0,101.47,3.0,10292.0,10993.0,58.0,RUE DE ROME,8339,75008.0,75108,Paris 8e Arrondissement,75,75108000BZ0004,2.322019,48.87988
585,2018-743998,2018-08-31,164898.0,Appartement,0.0,15.0,,1.0,,10993.0,58.0,RUE DE ROME,8339,75008.0,75108,Paris 8e Arrondissement,75,75108000BZ0004,2.322019,48.87988
586,2018-743999,2018-08-27,415000.0,Appartement,0.0,35.0,44.07,2.0,9417.0,11857.0,10.0,RUE DU ROCHER,8291,75008.0,75108,Paris 8e Arrondissement,75,75108000BV0018,2.323087,48.875913
587,2018-744000,2018-09-03,375000.0,Appartement,0.0,40.0,36.58,2.0,10252.0,9375.0,89.0,BD BEAUMARCHAIS,0783,75003.0,75103,Paris 3e Arrondissement,75,75103000AM0048,2.36731,48.859067
588,2018-744001,2018-09-04,130000.0,Appartement,0.0,12.0,20.65,1.0,6295.0,10833.0,75.0,RUE DE TURBIGO,9504,75003.0,75103,Paris 3e Arrondissement,75,75103000AF0150,2.359867,48.866496
590,2018-744003,2018-09-07,1335000.0,Appartement,0.0,133.0,140.0,5.0,9536.0,10038.0,17.0,RUE DE SAINT PETERSBOURG,8724,75008.0,75108,Paris 8e Arrondissement,75,75108000CD0018,2.32498,48.88135
591,2018-744004,2018-09-10,320000.0,Appartement,0.0,30.0,30.2,1.0,10596.0,10667.0,39.0,RUE VOLTA,9905,75003.0,75103,Paris 3e Arrondissement,75,75103000AC0011,2.357717,48.866486
593,2018-744005,2018-09-04,488200.0,Appartement,0.0,28.0,38.95,1.0,12534.0,17436.0,11.0,RUE DU CIRQUE,2049,75008.0,75108,Paris 8e Arrondissement,75,75108000BJ0031,2.314538,48.870702
594,2018-744006,2018-09-03,660000.0,Appartement,0.0,90.0,90.86,4.0,7264.0,7333.0,37.0,BD SAINT MARTIN,8692,75003.0,75103,Paris 3e Arrondissement,75,75103000AB0022,2.357612,48.868361
596,2018-744007,2018-09-07,135000.0,Appartement,0.0,19.0,23.6,1.0,5720.0,7105.0,18.0,RUE MARBEUF,5993,75008.0,75108,Paris 8e Arrondissement,75,75108000AN0024,2.303671,48.868163
638,2018-744010,2018-09-10,1215000.0,Appartement,0.0,108.0,109.08,3.0,11139.0,11250.0,48.0,BD MALESHERBES,5951,75008.0,75108,Paris 8e Arrondissement,75,75108000CI0056,2.318135,48.876896
639,2018-744011,2018-09-13,140000.0,Appartement,0.0,27.0,19.56,1.0,7157.0,5185.0,11.0,RUE HEROLD,4619,75001.0,75101,Paris 1er Arrondissement,75,75101000AR0011,2.341334,48.864943
643,2018-744014,2018-09-13,140000.0,Appartement,0.0,14.0,14.45,1.0,9689.0,10000.0,5.0,RUE DE LA NEVA,6734,75008.0,75108,Paris 8e Arrondissement,75,75108000AY0016,2.300027,48.877899
644,2018-744015,2018-09-12,281700.0,Appartement,0.0,24.0,23.64,2.0,11916.0,11738.0,10.0,RUE DES COUTURES SAINT GERVAIS,2412,75003.0,75103,Paris 3e Arrondissement,75,75103000AL0010,2.362533,48.860151
645,2018-744016,2018-08-30,1140000.0,Appartement,1.0,97.0,100.08,4.0,11391.0,11753.0,43.0,RUE DE TURBIGO,9504,75003.0,75103,Paris 3e Arrondissement,75,75103000AD0057,2.35297,48.864991
647,2018-744017,2018-08-30,778700.0,Appartement,0.0,69.0,48.07,3.0,16199.0,11286.0,10.0,RUE DE WASHINGTON,9942,75008.0,75108,Paris 8e Arrondissement,75,75108000BF0006,2.302318,48.872379
650,2018-744019,2018-09-05,1261450.0,Appartement,0.0,86.0,86.1,3.0,14651.0,14668.0,18.0,RUE JEAN MERMOZ,4921,75008.0,75108,Paris 8e Arrondissement,75,75108000BI0086,2.311741,48.870746
651,2018-744020,2018-09-05,520000.0,Appartement,0.0,35.0,31.86,1.0,16321.0,14857.0,18.0,PL DU MARCHE ST HONORE,6033,75001.0,75101,Paris 1er Arrondissement,75,75101000AZ0087,2.331672,48.86631
652,2018-744021,2018-09-07,432000.0,Appartement,0.0,37.0,37.2,2.0,11613.0,11676.0,21.0,RUE MOLIERE,6407,75001.0,75101,Paris 1er Arrondissement,75,75101000AW0061,2.336015,48.865546
653,2018-744022,2018-09-06,325233.0,Appartement,0.0,29.0,27.46,1.0,11844.0,11215.0,274.0,RUE SAINT HONORE,8635,75001.0,75101,Paris 1er Arrondissement,75,75101000AX0017,2.333387,48.864577
654,2018-744023,2018-08-31,478580.0,Appartement,0.0,37.0,37.3,3.0,12831.0,12935.0,8.0,RUE DE DURAS,3033,75008.0,75108,Paris 8e Arrondissement,75,75108000BN0048,2.31814,48.870867
655,2018-744024,2018-09-12,2575000.0,Appartement,0.0,127.0,,4.0,,20276.0,44.0,AV MARCEAU,5997,75008.0,75108,Paris 8e Arrondissement,75,75108000AP0081,2.299306,48.868586
663,2018-744025,2018-09-03,875000.0,Appartement,0.0,90.0,84.0,4.0,10417.0,9722.0,44.0,RUE BEAUBOURG,0759,75003.0,75103,Paris 3e Arrondissement,75,75103000AT0001,2.354391,48.862325
664,2018-744026,2018-09-07,210000.0,Appartement,0.0,30.0,20.26,2.0,10365.0,7000.0,36.0,RUE DU VERTBOIS,9711,75003.0,75103,Paris 3e Arrondissement,75,75103000AB0072,2.358005,48.867159
665,2018-744027,2018-08-27,1125562.0,Appartement,0.0,89.0,83.32,2.0,13509.0,12647.0,24.0,RUE DE LA VILLE L EVEQUE,9830,75008.0,75108,Paris 8e Arrondissement,75,75108000BM0072,2.319524,48.871977
667,2018-744029,2018-09-12,555771.0,Appartement,0.0,48.0,92.82,2.0,5988.0,11579.0,1.0,RUE REAUMUR,8073,75003.0,75103,Paris 3e Arrondissement,75,75103000AE0043,2.359307,48.864648
668,2018-744029,2018-09-12,578929.0,Appartement,0.0,50.0,92.82,2.0,6237.0,11579.0,1.0,RUE REAUMUR,8073,75003.0,75103,Paris 3e Arrondissement,75,75103000AE0043,2.359307,48.864648
669,2018-744030,2018-08-31,114065.0,Appartement,0.0,17.0,,1.0,,6710.0,44.0,RUE PASTOURELLE,7094,75003.0,75103,Paris 3e Arrondissement,75,75103000AI0043,2.358714,48.863313
670,2018-744030,2018-08-31,93935.0,Appartement,0.0,14.0,,1.0,,6710.0,44.0,RUE PASTOURELLE,7094,75003.0,75103,Paris 3e Arrondissement,75,75103000AI0043,2.358714,48.863313
671,2018-744031,2018-09-13,130000.0,Appartement,0.0,12.0,,1.0,,10833.0,37.0,BD SAINT MARTIN,8692,75003.0,75103,Paris 3e Arrondissement,75,75103000AB0022,2.357612,48.868361
672,2018-744032,2018-09-13,3100000.0,Appartement,0.0,272.0,,5.0,,11397.0,52.0,BD MALESHERBES,5951,75008.0,75108,Paris 8e Arrondissement,75,75108000CI0050,2.317856,48.877304
673,2018-744033,2018-09-07,630000.0,Appartement,0.0,50.0,58.25,1.0,10815.0,12600.0,51.0,RUE SAINT DENIS,8525,75001.0,75101,Paris 1er Arrondissement,75,75101000AP0066,2.348321,48.861161
675,2018-744034,2018-09-13,712390.0,Appartement,0.0,47.0,46.75,2.0,15238.0,15157.0,18.0,RUE DE PENTHIEVRE,7237,75008.0,75108,Paris 8e Arrondissement,75,75108000BK0032,2.315241,48.873088
698,2018-744037,2018-09-18,230744.0,Appartement,0.0,31.0,55.48,1.0,4159.0,7443.0,280.0,RUE SAINT HONORE,8635,75001.0,75101,Paris 1er Arrondissement,75,75101000AX0015,2.333196,48.864625
699,2018-744037,2018-09-18,215858.0,Appartement,0.0,29.0,,1.0,,7443.0,280.0,RUE SAINT HONORE,8635,75001.0,75101,Paris 1er Arrondissement,75,75101000AX0015,2.333196,48.864625
700,2018-744038,2018-09-06,964375.0,Appartement,0.0,81.0,78.58,4.0,12273.0,11906.0,151.0,RUE DU TEMPLE,9191,75003.0,75103,Paris 3e Arrondissement,75,75103000AE0050,2.358652,48.864251
701,2018-744039,2018-09-13,258621.0,Appartement,0.0,25.0,,1.0,,10345.0,16.0,RUE DE PICARDIE,7395,75003.0,75103,Paris 3e Arrondissement,75,75103000AH0077,2.362733,48.86352
702,2018-744039,2018-09-13,341379.0,Appartement,0.0,33.0,,2.0,,10345.0,16.0,RUE DE PICARDIE,7395,75003.0,75103,Paris 3e Arrondissement,75,75103000AH0077,2.362733,48.86352
703,2018-744040,2018-09-03,1065000.0,Appartement,0.0,115.0,105.78,4.0,10068.0,9261.0,18.0,RUE CHAPON,1771,75003.0,75103,Paris 3e Arrondissement,75,75103000AS0036,2.356206,48.863573
704,2018-744041,2018-09-13,360000.0,Appartement,0.0,50.0,36.65,2.0,9823.0,7200.0,53.0,RUE DE MONCEAU,6419,75008.0,75108,Paris 8e Arrondissement,75,75108000CM0019,2.311657,48.87868
705,2018-744042,2018-09-07,1111500.0,Appartement,0.0,81.0,,3.0,,13722.0,16.0,RUE CAFFARELLI,1413,75003.0,75103,Paris 3e Arrondissement,75,75103000AH0096,2.362324,48.863764
706,2018-744043,2018-09-11,210000.0,Appartement,0.0,14.0,15.71,1.0,13367.0,15000.0,30.0,RUE NOTRE DAME DE NAZARETH,6834,75003.0,75103,Paris 3e Arrondissement,75,75103000AF0063,2.359542,48.867492
709,2018-744045,2018-08-24,1275925.0,Appartement,0.0,65.0,63.1,3.0,20221.0,19630.0,29.0,RUE MARBEUF,5993,75008.0,75108,Paris 8e Arrondissement,75,75108000AR0060,2.304234,48.869357
710,2018-744046,2018-09-18,250000.0,Appartement,0.0,26.0,26.21,2.0,9538.0,9615.0,40.0,RUE NOTRE DAME DE NAZARETH,6834,75003.0,75103,Paris 3e Arrondissement,75,75103000AB0067,2.358455,48.867684
711,2018-744047,2018-08-31,1306810.0,Appartement,0.0,104.0,104.12,3.0,12551.0,12565.0,8.0,RUE DE ROME,8339,75008.0,75108,Paris 8e Arrondissement,75,75108000BU0040,2.325666,48.874523
713,2018-744048,2018-09-04,120000.0,Appartement,0.0,29.0,15.18,2.0,7905.0,4138.0,8.0,RUE ST PHILIPPE DU ROULE,8728,75008.0,75108,Paris 8e Arrondissement,75,75108000BE0013,2.308209,48.873089
714,2018-744049,2018-08-31,1041400.0,Appartement,0.0,70.0,70.94,3.0,14680.0,14877.0,3.0,RUE CHAMBIGES,1701,75008.0,75108,Paris 8e Arrondissement,75,75108000AN0065,2.303253,48.866834
717,2018-744052,2018-09-12,364000.0,Appartement,0.0,34.0,31.38,1.0,11600.0,10706.0,3.0,RUE DE DURAS,3033,75008.0,75108,Paris 8e Arrondissement,75,75108000BN0052,2.31754,48.87088
718,2018-744053,2018-09-13,10200.0,Appartement,0.0,12.0,,1.0,,850.0,12.0,RUE COMMINES,2249,75003.0,75103,Paris 3e Arrondissement,75,75103000AK0019,2.365951,48.861836
719,2018-744053,2018-09-13,11050.0,Appartement,0.0,13.0,,2.0,,850.0,12.0,RUE COMMINES,2249,75003.0,75103,Paris 3e Arrondissement,75,75103000AK0019,2.365951,48.861836
720,2018-744054,2018-09-07,1275000.0,Appartement,0.0,88.0,88.29,3.0,14441.0,14489.0,38.0,RUE DE TURENNE,9506,75003.0,75103,Paris 3e Arrondissement,75,75103000AN0031,2.364992,48.857626
721,2018-744055,2018-09-14,63333.0,Appartement,0.0,7.0,,1.0,,9048.0,10.0,RUE DU JOUR,5033,75001.0,75101,Paris 1er Arrondissement,75,75101000AR0118,2.345291,48.863929
722,2018-744055,2018-09-14,126667.0,Appartement,0.0,14.0,18.37,1.0,6895.0,9048.0,10.0,RUE DU JOUR,5033,75001.0,75101,Paris 1er Arrondissement,75,75101000AR0118,2.345291,48.863929
723,2018-744056,2018-08-22,725000.0,Appartement,0.0,60.0,52.2,3.0,13889.0,12083.0,22.0,RUE DEBELLEYME,2616,75003.0,75103,Paris 3e Arrondissement,75,75103000AK0062,2.363369,48.861629
726,2018-744058,2018-09-20,5550000.0,Appartement,0.0,212.0,243.1,5.0,22830.0,26179.0,85.0,RUE DU FAUBOURG SAINT HONORE,3518,75008.0,75108,Paris 8e Arrondissement,75,75108000BJ0014,2.313537,48.871632
730,2018-744059,2018-09-18,70000.0,Appartement,0.0,10.0,18.0,1.0,3889.0,7000.0,30.0,RUE DE MIROMESNIL,6387,75008.0,75108,Paris 8e Arrondissement,75,75108000BL0005,2.316377,48.873462
731,2018-744060,2018-08-30,340000.0,Appartement,0.0,34.0,31.45,2.0,10811.0,10000.0,15.0,RUE AU MAIRE,5927,75003.0,75103,Paris 3e Arrondissement,75,75103000AE0090,2.356455,48.864257
732,2018-744061,2018-09-06,450000.0,Appartement,0.0,35.0,34.87,1.0,12905.0,12857.0,76.0,AV DES CHAMPS ELYSEES,1733,75008.0,75108,Paris 8e Arrondissement,75,75108000BG0009,2.304678,48.871669
733,2018-744062,2018-09-11,1386000.0,Appartement,0.0,106.0,109.35,4.0,12675.0,13075.0,170.0,RUE DU TEMPLE,9191,75003.0,75103,Paris 3e Arrondissement,75,75103000AG0110,2.361632,48.865995
734,2018-744063,2018-09-20,276330.0,Appartement,0.0,25.0,26.22,2.0,10539.0,11053.0,60.0,RUE CHAPON,1771,75003.0,75103,Paris 3e Arrondissement,75,75103000AV0053,2.353632,48.864232
735,2018-744064,2018-09-03,281425.0,Appartement,0.0,30.0,29.73,1.0,9466.0,9381.0,117.0,RUE SAINT DENIS,8525,75001.0,75101,Paris 1er Arrondissement,75,75101000AQ0094,2.349457,48.862918
738,2018-744067,2018-09-21,72000.0,Appartement,0.0,9.0,,1.0,,8000.0,19.0,BD DE COURCELLES,2386,75008.0,75108,Paris 8e Arrondissement,75,75108000CG0029,2.314825,48.880719
739,2018-744068,2018-09-13,246605.0,Appartement,0.0,22.0,22.45,2.0,10985.0,11209.0,56.0,RUE DE L ARBRE SEC,0407,75001.0,75101,Paris 1er Arrondissement,75,75101000AT0113,2.342762,48.861153
740,2018-744069,2018-09-21,276800.0,Appartement,0.0,25.0,23.17,2.0,11946.0,11072.0,23.0,RUE NOTRE DAME DE NAZARETH,6834,75003.0,75103,Paris 3e Arrondissement,75,75103000AF0082,2.359381,48.867118
741,2018-744070,2018-09-21,350000.0,Appartement,0.0,33.0,33.86,2.0,10337.0,10606.0,82.0,RUE DE ROME,8339,75008.0,75108,Paris 8e Arrondissement,75,75108000CE0002,2.321152,48.881218
742,2018-744071,2018-09-20,138000.0,Appartement,0.0,22.0,15.66,1.0,8812.0,6273.0,10.0,RUE DE POITOU,7572,75003.0,75103,Paris 3e Arrondissement,75,75103000AK0057,2.364076,48.861506
743,2018-744072,2018-09-18,72000.0,Appartement,0.0,8.0,6.67,1.0,10795.0,9000.0,29.0,RUE DE SAINTONGE,8716,75003.0,75103,Paris 3e Arrondissement,75,75103000AK0114,2.362906,48.862347
744,2018-744073,2018-09-24,1560000.0,Appartement,0.0,148.0,150.42,7.0,10371.0,10541.0,46.0,RUE DE ROME,8339,75008.0,75108,Paris 8e Arrondissement,75,75108000BZ0057,2.322698,48.878607
748,2018-744076,2018-08-31,38000.0,Appartement,0.0,5.0,,1.0,,7600.0,6.0,PAS SAINT PHILIPPE DU ROULE,8727,75008.0,75108,Paris 8e Arrondissement,75,75108000BE0031,2.310954,48.873316
749,2018-744077,2018-08-31,38500.0,Appartement,0.0,11.0,,1.0,,3500.0,6.0,PAS SAINT PHILIPPE DU ROULE,8727,75008.0,75108,Paris 8e Arrondissement,75,75108000BE0031,2.310954,48.873316
750,2018-744078,2018-09-20,183500.0,Appartement,0.0,29.0,21.02,1.0,8730.0,6328.0,9.0,RUE BAYARD,0746,75008.0,75108,Paris 8e Arrondissement,75,75108000AK0021,2.307482,48.865696
751,2018-744079,2018-08-31,950000.0,Appartement,0.0,70.0,70.04,4.0,13564.0,13571.0,13.0,RUE DE WASHINGTON,9942,75008.0,75108,Paris 8e Arrondissement,75,75108000AU0013,2.301926,48.873003
752,2018-744080,2018-09-19,685700.0,Appartement,0.0,45.0,46.27,1.0,14820.0,15238.0,8.0,RUE VILLEHARDOUIN,9828,75003.0,75103,Paris 3e Arrondissement,75,75103000AM0119,2.366,48.858213
754,2018-744082,2018-09-20,626500.0,Appartement,0.0,44.0,44.85,2.0,13969.0,14239.0,25.0,RUE DE BRETAGNE,1275,75003.0,75103,Paris 3e Arrondissement,75,75103000AK0117,2.36291,48.862463
759,2018-744085,2018-08-30,313700.0,Appartement,0.0,40.0,30.9,2.0,10152.0,7842.0,16.0,RUE DES FILLES DU CALVAIRE,3643,75003.0,75103,Paris 3e Arrondissement,75,75103000AK0003,2.366285,48.862644
761,2018-744086,2018-09-24,175000.0,Appartement,1.0,10.0,12.5,1.0,14000.0,17500.0,46.0,RUE DE LABORDE,5200,75008.0,75108,Paris 8e Arrondissement,75,75108000CI0082,2.316533,48.875574
764,2018-744089,2018-09-11,70000.0,Appartement,0.0,10.0,8.41,1.0,8323.0,7000.0,41.0,RUE BEAUBOURG,0759,75003.0,75103,Paris 3e Arrondissement,75,75103000AU0071,2.353726,48.862341
765,2018-744090,2018-09-12,315000.0,Appartement,0.0,22.0,23.05,1.0,13666.0,14318.0,4.0,RUE DE CASTELLANE,1599,75008.0,75108,Paris 8e Arrondissement,75,75108000BS0083,2.325636,48.872515
766,2018-744091,2018-09-14,1572838.0,Appartement,0.0,168.0,163.28,5.0,9633.0,9362.0,56.0,RUE DE LISBONNE,5708,75008.0,75108,Paris 8e Arrondissement,75,75108000CM0007,2.308885,48.877745
768,2018-744092,2018-09-04,347500.0,Appartement,0.0,28.0,28.25,2.0,12301.0,12411.0,22.0,RUE DES VERTUS,9715,75003.0,75103,Paris 3e Arrondissement,75,75103000AE0057,2.358145,48.864518
770,2018-744093,2018-09-14,2150000.0,Appartement,0.0,100.0,100.26,3.0,21444.0,21500.0,31.0,QUAI DE L HORLOGE,4655,75001.0,75101,Paris 1er Arrondissement,75,75101000AL0005,2.342392,48.856915
771,2018-744094,2018-09-12,1220000.0,Appartement,0.0,104.0,106.05,4.0,11504.0,11731.0,37.0,RUE SAINT HONORE,8635,75001.0,75101,Paris 1er Arrondissement,75,75101000AO0140,2.3455,48.860669
772,2018-744095,2018-09-19,1409478.0,Appartement,0.0,91.0,87.7,4.0,16072.0,15489.0,38.0,RUE FRANCOIS 1ER,3814,75008.0,75108,Paris 8e Arrondissement,75,75108000AQ0018,2.304819,48.868369
774,2018-744096,2018-09-12,780000.0,Appartement,0.0,66.0,62.9,3.0,12401.0,11818.0,26.0,RUE DE CONSTANTINOPLE,2289,75008.0,75108,Paris 8e Arrondissement,75,75108000CF0023,2.318651,48.880844
775,2018-744097,2018-09-11,166000.0,Appartement,0.0,13.0,10.94,1.0,15174.0,12769.0,12.0,RUE CAFFARELLI,1413,75003.0,75103,Paris 3e Arrondissement,75,75103000AH0097,2.362182,48.863657
777,2018-744099,2018-09-19,1727150.0,Appartement,0.0,112.0,112.7,4.0,15325.0,15421.0,38.0,RUE FRANCOIS 1ER,3814,75008.0,75108,Paris 8e Arrondissement,75,75108000AQ0018,2.304819,48.868369
779,2018-744101,2018-09-18,2127000.0,Appartement,0.0,162.0,161.9,5.0,13138.0,13130.0,14.0,RUE DE VEZELAY,9723,75008.0,75108,Paris 8e Arrondissement,75,75108000CH0027,2.314291,48.878635
782,2018-744104,2018-09-03,1358000.0,Appartement,0.0,120.0,116.08,4.0,11699.0,11317.0,5.0,RUE D ARTOIS,0487,75008.0,75108,Paris 8e Arrondissement,75,75108000BG0046,2.308494,48.872214
783,2018-744105,2018-09-07,185000.0,Appartement,0.0,10.0,,1.0,,18500.0,28.0,RUE BEAUBOURG,0759,75003.0,75103,Paris 3e Arrondissement,75,75103000AT0012,2.354201,48.861762
790,2018-744109,2018-09-18,518000.0,Appartement,0.0,54.0,56.35,3.0,9193.0,9593.0,72.0,RUE DE ROME,8339,75008.0,75108,Paris 8e Arrondissement,75,75108000CE0013,2.321573,48.880728
791,2018-744110,2018-09-19,335000.0,Appartement,0.0,30.0,27.85,1.0,12029.0,11167.0,65.0,RUE NOTRE DAME DE NAZARETH,6834,75003.0,75103,Paris 3e Arrondissement,75,75103000AB0095,2.355484,48.86772
793,2018-744111,2018-09-20,1695000.0,Appartement,1.0,124.0,123.77,4.0,13695.0,13669.0,8.0,RUE DE CASTELLANE,1599,75008.0,75108,Paris 8e Arrondissement,75,75108000BS0081,2.325187,48.872523
794,2018-744112,2018-09-20,399000.0,Appartement,0.0,28.0,26.07,2.0,15305.0,14250.0,79.0,RUE QUINCAMPOIX,7970,75003.0,75103,Paris 3e Arrondissement,75,75103000AU0019,2.350958,48.862316
795,2018-744113,2018-09-20,236500.0,Appartement,0.0,24.0,21.67,1.0,10914.0,9854.0,61.0,RUE NOTRE DAME DE NAZARETH,6834,75003.0,75103,Paris 3e Arrondissement,75,75103000AB0092,2.355829,48.867646
797,2018-744115,2018-09-20,295000.0,Appartement,0.0,24.0,24.12,1.0,12231.0,12292.0,169.0,RUE DU TEMPLE,9191,75003.0,75103,Paris 3e Arrondissement,75,75103000AE0036,2.359539,48.865053
800,2018-744117,2018-09-18,35000.0,Appartement,0.0,6.0,5.19,1.0,6744.0,5833.0,13.0,RUE QUENTIN BAUCHART,7954,75008.0,75108,Paris 8e Arrondissement,75,75108000AP0014,2.299932,48.869507
801,2018-744118,2018-09-25,430000.0,Appartement,0.0,34.0,31.94,1.0,13463.0,12647.0,121.0,RUE SAINT HONORE,8635,75001.0,75101,Paris 1er Arrondissement,75,75101000AT0169,2.341817,48.861395
803,2018-744120,2018-08-31,570000.0,Appartement,0.0,55.0,64.07,3.0,8897.0,10364.0,55.0,BD SAINT MARTIN,8692,75003.0,75103,Paris 3e Arrondissement,75,75103000AB0136,2.355746,48.868756
805,2018-744122,2018-09-13,471500.0,Appartement,0.0,50.0,31.23,2.0,15098.0,9430.0,163.0,RUE SAINT MARTIN,8694,75003.0,75103,Paris 3e Arrondissement,75,75103000AU0057,2.351724,48.862491
806,2018-744123,2018-09-17,560000.0,Appartement,0.0,44.0,,3.0,,12727.0,9.0,RUE DE MONCEAU,6419,75008.0,75108,Paris 8e Arrondissement,75,75108000BC0022,2.306414,48.875683
810,2018-744126,2018-09-20,335000.0,Appartement,0.0,20.0,29.44,1.0,11379.0,16750.0,54.0,RUE CHAPON,1771,75003.0,75103,Paris 3e Arrondissement,75,75103000AV0051,2.353928,48.864207
811,2018-744127,2018-09-18,259336.0,Appartement,0.0,30.0,25.27,1.0,10263.0,8645.0,5.0,RUE MOLIERE,6407,75001.0,75101,Paris 1er Arrondissement,75,75101000AW0068,2.335425,48.864941
812,2018-744128,2018-09-20,100.0,Appartement,0.0,20.0,,1.0,,5.0,54.0,RUE CHAPON,1771,75003.0,75103,Paris 3e Arrondissement,75,75103000AV0051,2.353928,48.864207
813,2018-744129,2018-09-06,8000.0,Appartement,0.0,30.0,,1.0,,267.0,48.0,RUE DES FRANCS BOURGEOIS,3820,75003.0,75103,Paris 3e Arrondissement,75,75103000AP0041,2.358631,48.859078
814,2018-744130,2018-09-05,285000.0,Appartement,0.0,48.0,47.88,3.0,5952.0,5938.0,7.0,RUE NOTRE DAME DE NAZARETH,6834,75003.0,75103,Paris 3e Arrondissement,75,75103000AF0099,2.360903,48.866846
815,2018-744131,2018-09-07,180000.0,Appartement,0.0,15.0,,1.0,,12000.0,31.0,RUE DE LA SOURDIERE,5368,75001.0,75101,Paris 1er Arrondissement,75,75101000AZ0075,2.332855,48.867084
817,2018-744132,2018-09-05,955000.0,Appartement,0.0,70.0,72.61,3.0,13152.0,13643.0,30.0,RUE DE PENTHIEVRE,7237,75008.0,75108,Paris 8e Arrondissement,75,75108000BK0018,2.313849,48.872689
818,2018-744133,2018-09-04,600459.0,Appartement,0.0,77.0,75.15,2.0,7990.0,7798.0,78.0,RUE DU TEMPLE,9191,75003.0,75103,Paris 3e Arrondissement,75,75103000AT0043,2.356989,48.861622
819,2018-744133,2018-09-04,249541.0,Appartement,0.0,32.0,,1.0,,7798.0,78.0,RUE DU TEMPLE,9191,75003.0,75103,Paris 3e Arrondissement,75,75103000AT0043,2.356989,48.861622
820,2018-744134,2018-09-14,260300.0,Appartement,0.0,25.0,26.32,2.0,9890.0,10412.0,58.0,RUE NOTRE DAME DE NAZARETH,6834,75003.0,75103,Paris 3e Arrondissement,75,75103000AB0035,2.35742,48.86789
821,2018-744135,2018-09-06,48280.0,Appartement,0.0,289.0,,6.0,,167.0,5.0,AV MATIGNON,6178,75008.0,75108,Paris 8e Arrondissement,75,75108000BH0055,2.3112,48.869973
822,2018-744136,2018-09-14,465700.0,Appartement,0.0,24.0,,1.0,,19404.0,10.0,RUE BAILLET,0630,75001.0,75101,Paris 1er Arrondissement,75,75101000AK0033,2.342305,48.859904
823,2018-744137,2018-09-20,1280000.0,Appartement,0.0,100.0,84.11,3.0,15218.0,12800.0,6.0,RUE FRANCOIS 1ER,3814,75008.0,75108,Paris 8e Arrondissement,75,75108000AL0011,2.309391,48.865607
824,2018-744138,2018-09-18,390000.0,Appartement,0.0,52.0,51.05,2.0,7640.0,7500.0,35.0,RUE COQUILLIERE,2318,75001.0,75101,Paris 1er Arrondissement,75,75101000AR0042,2.341036,48.864313
825,2018-744139,2018-09-27,740750.0,Appartement,0.0,70.0,68.02,2.0,10890.0,10582.0,65.0,BD MALESHERBES,5951,75008.0,75108,Paris 8e Arrondissement,75,75108000CI0058,2.317473,48.876358
826,2018-744140,2018-09-13,250000.0,Appartement,0.0,20.0,18.99,1.0,13165.0,12500.0,120.0,RUE VIEILLE DU TEMPLE,9783,75003.0,75103,Paris 3e Arrondissement,75,75103000AL0025,2.363667,48.861308
829,2018-744143,2018-09-10,821900.0,Appartement,0.0,71.0,71.21,3.0,11542.0,11576.0,14.0,PL HENRI BERGSON,4539,75008.0,75108,Paris 8e Arrondissement,75,75108000BW0012,2.320249,48.876441
830,2018-744144,2018-09-18,879300.0,Appartement,0.0,85.0,83.65,4.0,10512.0,10345.0,16.0,RUE DUPETIT THOUARS,2997,75003.0,75103,Paris 3e Arrondissement,75,75103000AG0064,2.361793,48.865824
832,2018-744146,2018-09-17,243000.0,Appartement,0.0,16.0,19.45,2.0,12494.0,15188.0,14.0,RUE DE PICARDIE,7395,75003.0,75103,Paris 3e Arrondissement,75,75103000AH0078,2.362665,48.863468
836,2018-744149,2018-09-21,445000.0,Appartement,0.0,38.0,,2.0,,11711.0,28.0,RUE MESLAY,6286,75003.0,75103,Paris 3e Arrondissement,75,75103000AF0005,2.359613,48.867994
837,2018-744150,2018-09-26,300450.0,Appartement,0.0,33.0,33.38,2.0,9001.0,9105.0,10.0,RUE DES GRAVILLIERS,4302,75003.0,75103,Paris 3e Arrondissement,75,75103000AE0079,2.357878,48.863657
838,2018-744151,2018-09-27,261450.0,Appartement,0.0,33.0,33.15,2.0,7887.0,7923.0,32.0,RUE DE MONTMORENCY,6517,75003.0,75103,Paris 3e Arrondissement,75,75103000AV0072,2.354382,48.86338
839,2018-744152,2018-09-14,378500.0,Appartement,0.0,29.0,29.13,2.0,12993.0,13052.0,60.0,RUE VIEILLE DU TEMPLE,9783,75003.0,75103,Paris 3e Arrondissement,75,75103000AO0005,2.359416,48.85886
840,2018-744153,2018-09-19,382000.0,Appartement,0.0,55.0,56.5,3.0,6761.0,6945.0,10.0,RUE DE LABORDE,5200,75008.0,75108,Paris 8e Arrondissement,75,75108000BW0016,2.321493,48.876046
841,2018-744154,2018-09-24,2200000.0,Appartement,0.0,160.0,166.24,5.0,13234.0,13750.0,15.0,RUE DUPHOT,2999,75001.0,75101,Paris 1er Arrondissement,75,75101000BC0013,2.325287,48.868288
846,2018-744156,2018-09-25,563000.0,Appartement,0.0,46.0,46.18,3.0,12191.0,12239.0,7.0,RUE NOTRE DAME DE NAZARETH,6834,75003.0,75103,Paris 3e Arrondissement,75,75103000AF0099,2.360903,48.866846
848,2018-744158,2018-09-14,429000.0,Appartement,0.0,25.0,34.45,1.0,12453.0,17160.0,4.0,RUE DES FRANCS BOURGEOIS,3820,75003.0,75103,Paris 3e Arrondissement,75,75103000AN0014,2.364144,48.85662
849,2018-744159,2018-09-12,302680.0,Appartement,0.0,22.0,20.13,1.0,15036.0,13758.0,12.0,RUE VILLEDO,9824,75001.0,75101,Paris 1er Arrondissement,75,75101000AW0043,2.3359,48.866555
853,2018-744161,2018-09-10,2185710.0,Appartement,1.0,180.0,187.06,4.0,11685.0,12143.0,1.0,RUE DU GENERAL FOY,4041,75008.0,75108,Paris 8e Arrondissement,75,75108000CI0054,2.318566,48.8769
855,2018-744163,2018-09-18,168000.0,Appartement,0.0,10.0,12.36,1.0,13592.0,16800.0,70.0,RUE NOTRE DAME DE NAZARETH,6834,75003.0,75103,Paris 3e Arrondissement,75,75103000AB0055,2.356248,48.867858
858,2018-744165,2018-09-13,321000.0,Appartement,0.0,34.0,29.86,2.0,10750.0,9441.0,14.0,RUE DU FAUBOURG SAINT HONORE,3518,75008.0,75108,Paris 8e Arrondissement,75,75108000BR0029,2.322635,48.869041
860,2018-744167,2018-09-19,596948.0,Appartement,0.0,46.0,,2.0,,12977.0,191.0,RUE SAINT HONORE,8635,75001.0,75101,Paris 1er Arrondissement,75,75101000AX0011,2.332125,48.864553
861,2018-744167,2018-09-19,532062.0,Appartement,0.0,41.0,,2.0,,12977.0,191.0,RUE SAINT HONORE,8635,75001.0,75101,Paris 1er Arrondissement,75,75101000AX0011,2.332125,48.864553
862,2018-744168,2018-09-19,503040.0,Appartement,0.0,47.0,20.7,2.0,24301.0,10703.0,191.0,RUE SAINT HONORE,8635,75001.0,75101,Paris 1er Arrondissement,75,75101000AX0011,2.332125,48.864553
887,2018-744170,2018-10-01,985000.0,Appartement,0.0,115.0,116.16,5.0,8480.0,8565.0,110.0,BD DE SEBASTOPOL,8894,75003.0,75103,Paris 3e Arrondissement,75,75103000AB0121,2.354155,48.86848
889,2018-744172,2018-09-26,1050000.0,Appartement,0.0,94.0,96.74,3.0,10854.0,11170.0,23.0,RUE JEAN JACQUES ROUSSEAU,4901,75001.0,75101,Paris 1er Arrondissement,75,75101000AS0005,2.340887,48.862894
893,2018-744174,2018-09-07,741000.0,Appartement,0.0,61.0,65.24,3.0,11358.0,12148.0,276.0,RUE SAINT HONORE,8635,75001.0,75101,Paris 1er Arrondissement,75,75101000AX0017,2.333387,48.864577
894,2018-744175,2018-09-14,783350.0,Appartement,0.0,83.0,65.23,2.0,12009.0,9438.0,225.0,RUE DU FAUBOURG SAINT HONORE,3518,75008.0,75108,Paris 8e Arrondissement,75,75108000AX0113,2.299629,48.876786
903,2018-744177,2018-09-27,305357.0,Appartement,0.0,57.0,54.1,2.0,5644.0,5357.0,10.0,RUE QUENTIN BAUCHART,7954,75008.0,75108,Paris 8e Arrondissement,75,75108000AP0075,2.300139,48.869049
904,2018-744177,2018-09-27,294643.0,Appartement,0.0,55.0,,2.0,,5357.0,10.0,RUE QUENTIN BAUCHART,7954,75008.0,75108,Paris 8e Arrondissement,75,75108000AP0075,2.300139,48.869049
905,2018-744178,2018-09-21,290600.0,Appartement,0.0,19.0,22.59,1.0,12864.0,15295.0,26.0,RUE DU VERTBOIS,9711,75003.0,75103,Paris 3e Arrondissement,75,75103000AF0074,2.358609,48.867017
906,2018-744179,2018-09-27,965000.0,Appartement,0.0,81.0,81.27,3.0,11874.0,11914.0,24.0,RUE CHAPON,1771,75003.0,75103,Paris 3e Arrondissement,75,75103000AS0039,2.355828,48.863743
907,2018-744180,2018-09-26,1775000.0,Appartement,0.0,95.0,109.04,3.0,16278.0,18684.0,58.0,QUAI DES ORFEVRES,6920,75001.0,75101,Paris 1er Arrondissement,75,75101000AL0022,2.342008,48.856442
908,2018-744181,2018-09-11,816100.0,Appartement,0.0,65.0,57.2,3.0,14267.0,12555.0,8.0,RUE DU COMMANDANT RIVIERE,2237,75008.0,75108,Paris 8e Arrondissement,75,75108000BE0059,2.309282,48.873019
909,2018-744182,2018-09-27,1661835.0,Appartement,0.0,146.0,146.4,4.0,11351.0,11382.0,52.0,RUE DU FAUBOURG SAINT HONORE,3518,75008.0,75108,Paris 8e Arrondissement,75,75108000BN0029,2.320183,48.869787
912,2018-744183,2018-09-27,2440000.0,Appartement,0.0,200.0,195.0,4.0,12513.0,12200.0,2.0,AV VAN DYCK,9585,75008.0,75108,Paris 8e Arrondissement,75,75108000CO0027,2.305889,48.878013
913,2018-744184,2018-10-01,266000.0,Appartement,0.0,20.0,19.91,1.0,13360.0,13300.0,25.0,RUE DE BRETAGNE,1275,75003.0,75103,Paris 3e Arrondissement,75,75103000AK0117,2.36291,48.862463
915,2018-744186,2018-09-21,305000.0,Appartement,0.0,30.0,23.66,1.0,12891.0,10167.0,15.0,RUE DE BEARN,0756,75003.0,75103,Paris 3e Arrondissement,75,75103000AN0039,2.366228,48.85777
916,2018-744187,2018-10-01,276390.0,Appartement,0.0,25.0,25.02,1.0,11047.0,11056.0,31.0,RUE DU PONT NEUF,7619,75001.0,75101,Paris 1er Arrondissement,75,75101000AT0056,2.344639,48.861283
917,2018-744188,2018-09-18,415000.0,Appartement,0.0,43.0,44.01,2.0,9430.0,9651.0,18.0,RUE MICHEL LE COMTE,6336,75003.0,75103,Paris 3e Arrondissement,75,75103000AS0114,2.355908,48.862402
918,2018-744189,2018-09-21,554860.0,Appartement,0.0,45.0,45.47,2.0,12203.0,12330.0,223.0,RUE SAINT MARTIN,8694,75003.0,75103,Paris 3e Arrondissement,75,75103000AV0014,2.352473,48.864328
919,2018-744190,2018-09-28,250000.0,Appartement,0.0,27.0,23.51,1.0,10634.0,9259.0,260.0,RUE SAINT HONORE,8635,75001.0,75101,Paris 1er Arrondissement,75,75101000AX0024,2.333731,48.864306
920,2018-744191,2018-09-26,274200.0,Appartement,0.0,20.0,19.07,1.0,14379.0,13710.0,15.0,RUE JEAN JACQUES ROUSSEAU,4901,75001.0,75101,Paris 1er Arrondissement,75,75101000AS0012,2.340218,48.862656
921,2018-744192,2018-09-28,200000.0,Appartement,0.0,30.0,22.48,1.0,8897.0,6667.0,11.0,RUE CLAPEYRON,2067,75008.0,75108,Paris 8e Arrondissement,75,75108000CE0056,2.32376,48.88156
922,2018-744193,2018-09-26,165000.0,Appartement,0.0,14.0,13.54,1.0,12186.0,11786.0,97.0,RUE BEAUBOURG,0759,75003.0,75103,Paris 3e Arrondissement,75,75103000AD0037,2.355089,48.864571
925,2018-744195,2018-09-28,499000.0,Appartement,0.0,36.0,30.18,2.0,16534.0,13861.0,3.0,RUE DES DEUX BOULES,2762,75001.0,75101,Paris 1er Arrondissement,75,75101000AN0021,2.345771,48.858831
928,2018-744198,2018-09-19,240000.0,Appartement,0.0,38.0,26.36,3.0,9105.0,6316.0,3.0,RUE CUNIN GRIDAINE,2489,75003.0,75103,Paris 3e Arrondissement,75,75103000AD0055,2.353754,48.865173
929,2018-744199,2018-09-26,315600.0,Appartement,0.0,23.0,27.1,1.0,11646.0,13722.0,280.0,RUE SAINT HONORE,8635,75001.0,75101,Paris 1er Arrondissement,75,75101000AX0015,2.333196,48.864625
930,2018-744200,2018-09-07,1654000.0,Appartement,0.0,143.0,143.59,4.0,11519.0,11566.0,7.0,RUE DU MONT THABOR,6537,75001.0,75101,Paris 1er Arrondissement,75,75101000AY0011,2.328997,48.865335
931,2018-744201,2018-09-13,480000.0,Appartement,0.0,40.0,40.2,3.0,11940.0,12000.0,7.0,RUE DES FONTAINES DU TEMPLE,3723,75003.0,75103,Paris 3e Arrondissement,75,75103000AE0028,2.359272,48.865493
933,2018-744203,2018-09-28,3500.0,Appartement,0.0,103.0,,3.0,,34.0,196.0,RUE DE RIVOLI,8249,75001.0,75101,Paris 1er Arrondissement,75,75101000AY0090,2.331267,48.864476
934,2018-744204,2018-09-21,2999500.0,Appartement,0.0,155.0,159.08,5.0,18855.0,19352.0,3.0,RUE DU CIRQUE,2049,75008.0,75108,Paris 8e Arrondissement,75,75108000BJ0043,2.31345,48.870036
936,2018-744206,2018-09-14,328000.0,Appartement,0.0,24.0,20.61,1.0,15915.0,13667.0,17.0,RUE DE LA FERRONNERIE,3621,75001.0,75101,Paris 1er Arrondissement,75,75101000AO0072,2.347432,48.860096
937,2018-744207,2018-09-17,200000.0,Appartement,0.0,17.0,,1.0,,11765.0,2.0,RUE CROIX DES PETITS CHAMPS,2453,75001.0,75101,Paris 1er Arrondissement,75,75101000AS0027,2.339389,48.862333
938,2018-744208,2018-09-17,260000.0,Appartement,0.0,29.0,,2.0,,8966.0,2.0,RUE CROIX DES PETITS CHAMPS,2453,75001.0,75101,Paris 1er Arrondissement,75,75101000AS0027,2.339389,48.862333
939,2018-744209,2018-10-01,170000.0,Appartement,0.0,18.0,19.7,1.0,8629.0,9444.0,63.0,RUE DE SAINTONGE,8716,75003.0,75103,Paris 3e Arrondissement,75,75103000AH0035,2.365335,48.864427
940,2018-744210,2018-09-26,421500.0,Appartement,0.0,31.0,25.88,1.0,16287.0,13597.0,25.0,RUE ROYALE,8418,75008.0,75108,Paris 8e Arrondissement,75,75108000BR0022,2.322757,48.869194
941,2018-744211,2018-09-25,105000.0,Appartement,0.0,12.0,13.12,1.0,8003.0,8750.0,154.0,RUE DU TEMPLE,9191,75003.0,75103,Paris 3e Arrondissement,75,75103000AI0003,2.359516,48.864397
942,2018-744212,2018-09-27,480000.0,Appartement,0.0,46.0,46.02,2.0,10430.0,10435.0,17.0,RUE DU BOULOI,1178,75001.0,75101,Paris 1er Arrondissement,75,75101000AR0063,2.340674,48.863943
944,2018-744214,2018-09-12,46500.0,Appartement,0.0,143.0,6.26,4.0,7428.0,325.0,7.0,RUE DU MONT THABOR,6537,75001.0,75101,Paris 1er Arrondissement,75,75101000AY0011,2.328997,48.865335
946,2018-744216,2018-09-26,950000.0,Appartement,0.0,80.0,81.18,4.0,11702.0,11875.0,267.0,RUE SAINT HONORE,8635,75001.0,75101,Paris 1er Arrondissement,75,75101000BD0006,2.324769,48.867435
947,2018-744217,2018-09-27,2200000.0,Appartement,0.0,189.0,190.06,5.0,11575.0,11640.0,27.0,BD MALESHERBES,5951,75008.0,75108,Paris 8e Arrondissement,75,75108000BM0058,2.32079,48.872412
951,2018-744220,2018-09-24,2030000.0,Appartement,0.0,237.0,236.85,6.0,8571.0,8565.0,54.0,RUE BEAUBOURG,0759,75003.0,75103,Paris 3e Arrondissement,75,75103000AS0088,2.354665,48.862838
972,2018-744222,2018-09-26,200357.0,Appartement,0.0,17.0,42.34,1.0,4732.0,11786.0,10.0,RUE DE LA NEVA,6734,75008.0,75108,Paris 8e Arrondissement,75,75108000AY0022,2.301014,48.878069
973,2018-744222,2018-09-26,294643.0,Appartement,0.0,25.0,,2.0,,11786.0,10.0,RUE DE LA NEVA,6734,75008.0,75108,Paris 8e Arrondissement,75,75108000AY0022,2.301014,48.878069
974,2018-744223,2018-09-27,315000.0,Appartement,0.0,31.0,32.14,2.0,9801.0,10161.0,8.0,RUE VOLTA,9905,75003.0,75103,Paris 3e Arrondissement,75,75103000AE0134,2.357103,48.86471
975,2018-744224,2018-09-28,420000.0,Appartement,0.0,35.0,38.05,1.0,11038.0,12000.0,23.0,RUE DES MATHURINS,6176,75008.0,75108,Paris 8e Arrondissement,75,75108000BS0074,2.326005,48.872948
977,2018-744225,2018-09-21,1101700.0,Appartement,0.0,96.0,87.06,3.0,12654.0,11476.0,178.0,RUE DU FAUBOURG SAINT HONORE,3518,75008.0,75108,Paris 8e Arrondissement,75,75108000BD0048,2.308306,48.874454
978,2018-744226,2018-09-21,239474.0,Appartement,0.0,26.0,53.17,2.0,4504.0,9211.0,4.0,RUE DES SAUSSAIES,8843,75008.0,75108,Paris 8e Arrondissement,75,75108000BN0058,2.317076,48.871015
979,2018-744226,2018-09-21,285526.0,Appartement,0.0,31.0,53.17,2.0,5370.0,9211.0,4.0,RUE DES SAUSSAIES,8843,75008.0,75108,Paris 8e Arrondissement,75,75108000BN0058,2.317076,48.871015
980,2018-744227,2018-09-19,500000.0,Appartement,0.0,66.0,49.96,5.0,10008.0,7576.0,19.0,RUE DE MONTMORENCY,6517,75003.0,75103,Paris 3e Arrondissement,75,75103000AS0070,2.354914,48.862979
981,2018-744228,2018-09-17,1402450.0,Appartement,0.0,115.0,113.52,5.0,12354.0,12195.0,7.0,RUE BERANGER,0871,75003.0,75103,Paris 3e Arrondissement,75,75103000AG0101,2.36384,48.86528
982,2018-744229,2018-09-13,1420000.0,Appartement,0.0,113.0,118.05,2.0,12029.0,12566.0,19.0,RUE DE LISBONNE,5708,75008.0,75108,Paris 8e Arrondissement,75,75108000CI0010,2.314412,48.877556
986,2018-744232,2018-09-28,1500000.0,Appartement,0.0,120.0,,4.0,,12500.0,34.0,RUE SAINTE ANNE,8534,75001.0,75101,Paris 1er Arrondissement,75,75101000AW0028,2.336033,48.866637
987,2018-744233,2018-09-11,380000.0,Appartement,0.0,35.0,34.35,1.0,11063.0,10857.0,260.0,RUE SAINT HONORE,8635,75001.0,75101,Paris 1er Arrondissement,75,75101000AX0024,2.333731,48.864306
990,2018-744236,2018-09-14,930000.0,Appartement,1.0,90.0,79.83,3.0,11650.0,10333.0,20.0,RUE DE BERNE,0900,75008.0,75108,Paris 8e Arrondissement,75,75108000CE0078,2.323316,48.881078
993,2018-744238,2018-09-20,222000.0,Appartement,0.0,30.0,24.29,1.0,9140.0,7400.0,35.0,BD DES BATIGNOLLES,0719,75008.0,75108,Paris 8e Arrondissement,75,75108000CE0048,2.32275,48.882178
994,2018-744239,2018-09-21,287283.0,Appartement,0.0,46.0,62.52,3.0,4595.0,6245.0,30.0,RUE DE LA BIENFAISANCE,0960,75008.0,75108,Paris 8e Arrondissement,75,75108000CI0033,2.316546,48.876786
995,2018-744239,2018-09-21,374717.0,Appartement,0.0,60.0,,3.0,,6245.0,30.0,RUE DE LA BIENFAISANCE,0960,75008.0,75108,Paris 8e Arrondissement,75,75108000CI0033,2.316546,48.876786
999,2018-744242,2018-09-17,332300.0,Appartement,0.0,31.0,30.28,2.0,10974.0,10719.0,106.0,RUE VIEILLE DU TEMPLE,9783,75003.0,75103,Paris 3e Arrondissement,75,75103000AL0016,2.362709,48.860618
1001,2018-744244,2018-09-24,179550.0,Appartement,0.0,20.0,17.51,1.0,10254.0,8978.0,72.0,RUE DES GRAVILLIERS,4302,75003.0,75103,Paris 3e Arrondissement,75,75103000AD0043,2.354691,48.864578
1003,2018-744246,2018-09-20,1750000.0,Appartement,0.0,143.0,130.51,5.0,13409.0,12238.0,18.0,RUE DE LISBONNE,5708,75008.0,75108,Paris 8e Arrondissement,75,75108000CH0034,2.315196,48.877914
1004,2018-744247,2018-09-21,25000.0,Appartement,0.0,9.0,,1.0,,2778.0,8.0,AV MONTAIGNE,6450,75008.0,75108,Paris 8e Arrondissement,75,75108000AK0045,2.304497,48.865627
1006,2018-744249,2018-09-28,390000.0,Appartement,0.0,32.0,37.21,2.0,10481.0,12188.0,18.0,RUE RAMBUTEAU,8009,75003.0,75103,Paris 3e Arrondissement,75,75103000AT0028,2.35501,48.861067
1008,2018-744251,2018-10-05,1180000.0,Appartement,0.0,78.0,77.46,4.0,15234.0,15128.0,4.0,RUE DU GRAND VENEUR,4290,75003.0,75103,Paris 3e Arrondissement,75,75103000AM0116,2.365997,48.859077
1010,2018-744253,2018-09-19,1775000.0,Appartement,0.0,115.0,127.05,4.0,13971.0,15435.0,3.0,RUE PAUL DUBOIS,7151,75003.0,75103,Paris 3e Arrondissement,75,75103000AG0050,2.360887,48.865301
1012,2018-744255,2018-08-21,925000.0,Appartement,0.0,60.0,65.52,2.0,14118.0,15417.0,7.0,RUE JEAN GOUJON,4897,75008.0,75108,Paris 8e Arrondissement,75,75108000AL0018,2.30927,48.866362
1013,2018-744256,2018-09-18,320000.0,Appartement,0.0,34.0,36.35,1.0,8803.0,9412.0,6.0,RUE MONTALIVET,6454,75008.0,75108,Paris 8e Arrondissement,75,75108000BN0067,2.319277,48.871019
1014,2018-744257,2018-09-27,1048169.0,Appartement,0.0,83.0,,2.0,,12629.0,23.0,RUE DES GRAVILLIERS,4302,75003.0,75103,Paris 3e Arrondissement,75,75103000AS0010,2.35655,48.863749
1015,2018-744258,2018-10-09,305000.0,Appartement,0.0,23.0,23.3,1.0,13090.0,13261.0,3.0,RUE DU FOIN,3698,75003.0,75103,Paris 3e Arrondissement,75,75103000AN0093,2.365391,48.85676
1020,2018-744260,2018-09-28,345445.0,Appartement,0.0,23.0,26.71,1.0,12933.0,15019.0,236.0,RUE SAINT MARTIN,8694,75003.0,75103,Paris 3e Arrondissement,75,75103000AV0055,2.353398,48.864358
1022,2018-744262,2018-09-11,1144133.0,Appartement,0.0,92.0,88.61,3.0,12912.0,12436.0,28.0,RUE D ARTOIS,0487,75008.0,75108,Paris 8e Arrondissement,75,75108000BD0009,2.306525,48.873912
1023,2018-744262,2018-09-11,74617.0,Appartement,0.0,6.0,6.1,1.0,12232.0,12436.0,28.0,RUE D ARTOIS,0487,75008.0,75108,Paris 8e Arrondissement,75,75108000BD0009,2.306525,48.873912
1025,2018-744263,2018-09-26,2200000.0,Appartement,0.0,151.0,,5.0,,14570.0,4.0,RUE DE LA RENAISSANCE,8129,75008.0,75108,Paris 8e Arrondissement,75,75108000AN0014,2.303019,48.86741
1027,2018-744264,2018-09-26,1377950.0,Appartement,0.0,119.0,119.42,4.0,11539.0,11579.0,34.0,RUE DE TURIN,9510,75008.0,75108,Paris 8e Arrondissement,75,75108000CD0042,2.324673,48.882291
1029,2018-744266,2018-09-19,854650.0,Appartement,0.0,76.0,75.69,4.0,11291.0,11245.0,60.0,RUE VIEILLE DU TEMPLE,9783,75003.0,75103,Paris 3e Arrondissement,75,75103000AO0005,2.359416,48.85886
1031,2018-744268,2018-10-08,1000.0,Appartement,0.0,43.0,,2.0,,23.0,12.0,RUE COMMINES,2249,75003.0,75103,Paris 3e Arrondissement,75,75103000AK0019,2.365951,48.861836
1035,2018-744271,2018-10-05,675000.0,Appartement,0.0,60.0,60.37,2.0,11181.0,11250.0,32.0,RUE CHARLOT,1880,75003.0,75103,Paris 3e Arrondissement,75,75103000AK0109,2.362364,48.862402
1036,2018-744272,2018-09-20,2950000.0,Appartement,0.0,180.0,179.48,5.0,16436.0,16389.0,3.0,RUE DU BOCCADOR,1044,75008.0,75108,Paris 8e Arrondissement,75,75108000AO0044,2.303026,48.86621
1037,2018-744273,2018-10-05,5000.0,Appartement,0.0,15.0,,1.0,,333.0,15.0,RUE ETIENNE MARCEL,3392,75001.0,75101,Paris 1er Arrondissement,75,75101000AQ0111,2.349338,48.863651
1038,2018-744274,2018-09-26,106080.0,Appartement,0.0,20.0,20.33,1.0,5218.0,5304.0,22.0,RUE NOTRE DAME DE NAZARETH,6834,75003.0,75103,Paris 3e Arrondissement,75,75103000AF0054,2.360273,48.867377
1041,2018-744277,2018-09-14,618200.0,Appartement,0.0,48.0,54.13,1.0,11421.0,12879.0,17.0,RUE DU PONT AUX CHOUX,7605,75003.0,75103,Paris 3e Arrondissement,75,75103000AL0050,2.365747,48.860766
1042,2018-744278,2018-09-21,570000.0,Appartement,0.0,61.0,58.29,3.0,9779.0,9344.0,21.0,RUE DE MOSCOU,6573,75008.0,75108,Paris 8e Arrondissement,75,75108000CE0085,2.323794,48.880902
1043,2018-744279,2018-09-19,285000.0,Appartement,0.0,28.0,27.58,2.0,10334.0,10179.0,11.0,RUE MONTMARTRE,6513,75001.0,75101,Paris 1er Arrondissement,75,75101000AR0113,2.345223,48.864177
1044,2018-744280,2018-09-27,240000.0,Appartement,0.0,20.0,17.54,3.0,13683.0,12000.0,34.0,RUE DE POITOU,7572,75003.0,75103,Paris 3e Arrondissement,75,75103000AK0093,2.362104,48.861856
1045,2018-744281,2018-09-26,945000.0,Appartement,0.0,77.0,64.88,2.0,14565.0,12273.0,11.0,RUE DE SAINTONGE,8716,75003.0,75103,Paris 3e Arrondissement,75,75103000AQ0038,2.361804,48.861426
1046,2018-744282,2018-09-27,370000.0,Appartement,0.0,41.0,40.54,2.0,9127.0,9024.0,17.0,RUE DE LA TREMOILLE,5388,75008.0,75108,Paris 8e Arrondissement,75,75108000AN0031,2.303754,48.867834
1047,2018-744283,2018-10-08,2070000.0,Appartement,0.0,137.0,,5.0,,15109.0,13.0,RUE CHARLOT,1880,75003.0,75103,Paris 3e Arrondissement,75,75103000AQ0023,2.360826,48.861575
1048,2018-744284,2018-10-10,145000.0,Appartement,0.0,17.0,15.65,1.0,9265.0,8529.0,1.0,RUE PERREE,7281,75003.0,75103,Paris 3e Arrondissement,75,75103000AH0094,2.362554,48.86377
1052,2018-744286,2018-10-05,617750.0,Appartement,0.0,57.0,58.68,2.0,10527.0,10838.0,27.0,RUE D ARTOIS,0487,75008.0,75108,Paris 8e Arrondissement,75,75108000BF0038,2.306629,48.873377
1053,2018-744287,2018-09-26,535000.0,Appartement,0.0,64.0,74.19,3.0,7211.0,8359.0,171.0,RUE SAINT MARTIN,8694,75003.0,75103,Paris 3e Arrondissement,75,75103000AU0060,2.351816,48.862646
